$GPGGA,143746.00,2255.626626,S,04527.650682,W,1,15,1.2,544.9,M,-4.3,M,,*7A
$PGLOR,5,STA,143746.00,-0.002,0.000,295,1,12,1,P,F,L,0,C,2,S,0002,20,1,R,33F4,TPEF,19,32,LC,,*7E
$PGLOR,1,UNC,143746.00,0.018,12.0,4.1,0.22,180.00,9.3,7.6,-35.2*0A
$PGLOR,2,SAT,3,1,R05,020,3F,G10,030,3B,G18,030,1F,R20,026,1B,R19,028,3F,R06,018,11*41
$PGLOR,2,SAT,3,2,G21,024,1F,G26,015,3B,G16,021,3B,G32,029,1F,G27,013,30,G14,023,1F*4F
$PGLOR,2,SAT,3,3,G29,029,1F,R04,019,33,G15,027,33,R21,019,33,G20,007,30,R18,012,30*59
$PGLOR,2,SIO,TxERR,0,RxERR,0,TxCNT,567,RxCNT,4309,MLFRMPKT,0,DTMS,994,DTIN,17,24,DTOUT,539,968,HATMD,57*11
$PGLOR,3,PWR,mA,38.0,RFTm,993,OscTm,1000,MeasTm,1000,UTC,143746.00*0D
$GPGSV,3,1,12,10,69,250,30,18,56,160,31,21,43,131,25,26,35,304,16*7F
$GPGSV,3,2,12,16,34,265,21,32,30,003,29,27,29,217,17,14,25,004,23*78
$GPGSV,3,3,12,29,21,045,32,15,17,131,31,20,04,132,07,08,00,219,*72
$GLGSV,2,1,07,69,72,168,24,84,48,176,27,83,45,086,28,70,45,323,27*68
$GLGSV,2,2,07,68,19,153,20,85,09,213,19,82,02,051,12*52
$GPGSA,A,3,10,14,15,16,18,21,26,29,32,,,,5.4,2.5,4.8*3B
$GNGSA,A,3,10,14,15,16,18,21,26,29,32,,,,5.4,2.5,4.8*25
$GNGSA,A,3,68,69,70,83,84,85,,,,,,,5.4,2.5,4.8*2A
$QZGSA,A,3,,,,,,,,,,,,,5.4,2.5,4.8*24
$IMGSA,A,3,,,,,,,,,,,,,5.4,2.5,4.8*2B
$PGLOR,1,FIX,1.0,1.0*20
$GPRMC,143746.00,A,2255.626626,S,04527.650682,W,000.0,,020516,,,A*77
$PGLOR,SPL,20160502113752.7,POS,20160502143746.000,-22.927110,-45.460845,12,12,0,541,4,1.100000
$GPGGA,143747.00,2255.626626,S,04527.650682,W,1,15,0.8,545.9,M,-4.3,M,,*71
$PGLOR,5,STA,143747.00,-0.002,0.000,295,1,8,1,P,F,L,0,C,2,S,0002,20,1,R,33F4,TPEF,19,33,LC,,*45
$PGLOR,1,UNC,143747.00,0.016,8.0,4.0,0.18,180.00,6.2,5.1,-30.9*33
$PGLOR,2,SAT,3,1,R05,021,3F,G10,031,3B,G18,032,1F,R20,026,1B,R19,029,3F,R06,018,1B*31
$PGLOR,2,SAT,3,2,G21,026,1B,G26,018,33,G16,019,3F,G32,030,1B,G27,019,30,G14,027,1B*3C
$PGLOR,2,SAT,3,3,G29,030,1F,R04,018,33,G15,029,3F,R21,020,33,G20,007,30,R18,013,30*20
$PGLOR,2,SIO,TxERR,0,RxERR,0,TxCNT,362,RxCNT,4192,MLFRMPKT,0,DTMS,999,DTIN,45,53,DTOUT,518,946,HATMD,56*16
$PGLOR,3,PWR,mA,38.2,RFTm,1000,OscTm,1000,MeasTm,1000,UTC,143747.00*3C
$GPGSV,3,1,12,10,69,250,31,18,56,160,32,21,43,131,26,26,35,304,18*70
$GPGSV,3,2,12,16,34,265,21,32,30,003,30,27,29,217,19,14,25,004,27*7A
$GPGSV,3,3,12,29,21,045,32,15,17,131,31,20,04,132,07,08,00,219,*72
$GLGSV,2,1,07,69,72,168,24,84,48,176,27,83,45,086,29,70,45,323,26*68
$GLGSV,2,2,07,68,19,153,20,85,09,213,20,82,02,051,13*59
$GPGSA,A,3,10,14,15,16,18,21,26,29,32,,,,2.3,1.3,1.9*3A
$GNGSA,A,3,10,14,15,16,18,21,26,29,32,,,,2.3,1.3,1.9*24
$GNGSA,A,3,68,69,70,83,84,85,,,,,,,2.3,1.3,1.9*2B
$QZGSA,A,3,,,,,,,,,,,,,2.3,1.3,1.9*25
$IMGSA,A,3,,,,,,,,,,,,,2.3,1.3,1.9*2A
$PGLOR,1,FIX,1.0,1.0*20
$GPRMC,143747.00,A,2255.626626,S,04527.650682,W,000.0,,020516,,,A*76
$PGLOR,SPL,20160502113753.7,POS,20160502143747.000,-22.927110,-45.460845,8,8,0,542,4,1.100000
$GPGGA,143748.00,2255.626626,S,04527.650682,W,1,15,0.8,545.9,M,-4.3,M,,*7E
$PGLOR,5,STA,143748.00,-0.002,0.000,295,1,8,1,P,F,L,0,C,2,S,0002,20,1,R,33F4,TPEF,19,34,LC,,*4D
$PGLOR,1,UNC,143748.00,0.015,8.0,4.0,0.21,180.00,6.2,5.1,-30.8*34
$PGLOR,2,SAT,3,1,R05,022,3F,G10,031,3B,G18,030,1F,R20,025,1B,R19,030,3F,R06,018,1B*3B
$PGLOR,2,SAT,3,2,G21,028,1B,G26,015,33,G16,022,3F,G32,028,1B,G27,020,30,G14,026,1B*35
$PGLOR,2,SAT,3,3,G29,031,1F,R04,017,33,G15,031,3F,R21,020,33,G20,014,30,R18,007,30*20
$PGLOR,2,SIO,TxERR,0,RxERR,0,TxCNT,369,RxCNT,4161,MLFRMPKT,0,DTMS,1000,DTIN,45,56,DTOUT,559,941,HATMD,56*2E
$PGLOR,3,PWR,mA,38.2,RFTm,999,OscTm,1000,MeasTm,1000,UTC,143748.00*0B
$GPGSV,3,1,12,10,69,250,31,18,56,160,31,21,43,131,28,26,35,304,18*7D
$GPGSV,3,2,12,16,34,265,22,32,30,003,30,27,29,217,20,14,25,004,27*73
$GPGSV,3,3,12,29,21,045,32,15,17,131,31,20,04,132,14,08,00,219,*70
$GLGSV,2,1,07,69,72,168,24,84,48,176,27,83,45,086,30,70,45,323,25*63
$GLGSV,2,2,07,68,19,153,19,85,09,213,20,82,02,051,12*52
$GPGSA,A,3,10,14,15,16,18,21,26,29,32,,,,2.3,1.3,1.9*3A
$GNGSA,A,3,10,14,15,16,18,21,26,29,32,,,,2.3,1.3,1.9*24
$GNGSA,A,3,68,69,70,83,84,85,,,,,,,2.3,1.3,1.9*2B
$QZGSA,A,3,,,,,,,,,,,,,2.3,1.3,1.9*25
$IMGSA,A,3,,,,,,,,,,,,,2.3,1.3,1.9*2A
$PGLOR,1,FIX,1.0,1.0*20
$GPRMC,143748.00,A,2255.626626,S,04527.650682,W,000.0,,020516,,,A*79
$PGLOR,SPL,20160502113754.7,POS,20160502143748.000,-22.927110,-45.460845,8,8,0,542,4,1.100000
$GPGGA,143749.00,2255.626626,S,04527.650682,W,1,15,0.8,546.0,M,-4.3,M,,*75
$PGLOR,5,STA,143749.00,-0.002,0.000,296,1,8,0,P,F,L,0,C,3,S,0002,20,1,R,33F4,TPEF,19,35,LC,,*4E
$PGLOR,1,UNC,143749.00,0.015,8.0,4.0,0.17,180.00,5.8,5.5,-10.6*31
$PGLOR,2,SAT,3,1,R05,021,3B,G10,030,3B,G18,029,1F,R20,024,1F,R19,027,3F,R06,022,1B*3F
$PGLOR,2,SAT,3,2,G21,026,1F,G26,020,3B,G16,020,37,G32,024,1B,G27,007,30,G14,027,1F*37
$PGLOR,2,SAT,3,3,G29,033,1F,R04,023,33,G15,031,3F,R21,017,33,G20,012,30,R18,007,30*27
$PGLOR,2,SIO,TxERR,0,RxERR,0,TxCNT,459,RxCNT,4158,MLFRMPKT,0,DTMS,999,DTIN,40,51,DTOUT,331,948,HATMD,55*18
$PGLOR,3,PWR,mA,37.0,RFTm,999,OscTm,1000,MeasTm,1000,UTC,143749.00*07
$GPGSV,3,1,12,10,69,250,31,18,56,160,31,21,43,131,28,26,35,304,20*76
$GPGSV,3,2,12,16,34,265,22,32,30,003,29,27,29,217,19,14,25,004,27*71
$GPGSV,3,3,12,29,21,045,33,15,17,131,31,20,04,132,14,08,00,219,*71
$GLGSV,2,1,07,69,72,168,23,84,48,176,27,83,45,086,29,70,45,323,25*6C
$GLGSV,2,2,07,68,19,153,23,85,09,213,20,82,02,051,12*5B
$GPGSA,A,3,10,14,15,16,18,21,26,29,32,,,,2.5,1.0,2.2*37
$GNGSA,A,3,10,14,15,16,18,21,26,29,32,,,,2.5,1.0,2.2*29
$GNGSA,A,3,68,69,70,83,84,85,,,,,,,2.5,1.0,2.2*26
$QZGSA,A,3,,,,,,,,,,,,,2.5,1.0,2.2*28
$IMGSA,A,3,,,,,,,,,,,,,2.5,1.0,2.2*27
$PGLOR,1,FIX,1.0,1.0*20
$GPRMC,143749.00,A,2255.626626,S,04527.650682,W,000.0,,020516,,,A*78
$PGLOR,SPL,20160502113755.7,POS,20160502143749.000,-22.927110,-45.460845,8,8,0,542,4,1.100000
$GPGGA,143750.00,2255.626626,S,04527.650682,W,1,15,0.8,546.0,M,-4.3,M,,*7D
$PGLOR,5,STA,143750.00,-0.002,0.000,296,1,8,0,P,F,L,0,C,3,S,0002,20,1,R,33F4,TPEF,19,36,LC,,*45
$PGLOR,1,UNC,143750.00,0.016,8.0,4.0,0.22,180.00,5.8,5.5,-10.2*38
$PGLOR,2,SAT,3,1,R05,022,3F,G10,027,1F,G18,027,1F,R20,023,1B,R19,025,3B,R06,019,1B*3B
$PGLOR,2,SAT,3,2,G21,025,1F,G26,020,3F,G16,019,3B,G32,027,1F,G27,019,30,G14,028,1F*48
$PGLOR,2,SAT,3,3,G29,033,1F,R04,026,33,G15,028,33,R21,015,33,G20,007,30,R18,007,30*59
$PGLOR,2,SIO,TxERR,0,RxERR,0,TxCNT,369,RxCNT,4149,MLFRMPKT,0,DTMS,1001,DTIN,45,53,DTOUT,518,945,HATMD,56*21
$PGLOR,3,PWR,mA,37.0,RFTm,1001,OscTm,1000,MeasTm,1000,UTC,143750.00*36
$GPGSV,3,1,12,10,69,250,31,18,56,160,31,21,43,131,27,26,35,304,20*79
$GPGSV,3,2,12,16,34,265,22,32,30,003,29,27,29,217,19,14,25,004,28*7E
$GPGSV,3,3,12,29,21,045,33,15,17,131,31,20,04,132,13,08,00,219,*76
$GLGSV,2,1,07,69,72,168,23,84,48,176,26,83,45,086,29,70,45,323,24*6C
$GLGSV,2,2,07,68,19,153,26,85,09,213,20,82,02,051,11*5D
$GPGSA,A,3,10,14,15,16,18,21,26,29,32,,,,4.4,1.9,3.9*33
$GNGSA,A,3,10,14,15,16,18,21,26,29,32,,,,4.4,1.9,3.9*2D
$GNGSA,A,3,68,69,70,83,84,85,,,,,,,4.4,1.9,3.9*22
$QZGSA,A,3,,,,,,,,,,,,,4.4,1.9,3.9*2C
$IMGSA,A,3,,,,,,,,,,,,,4.4,1.9,3.9*23
$PGLOR,1,FIX,1.0,1.0*20
$GPRMC,143750.00,A,2255.626626,S,04527.650682,W,000.0,,020516,,,A*70
$PGLOR,SPL,20160502113756.7,POS,20160502143750.000,-22.927110,-45.460845,8,8,0,542,4,1.100000
$GPGGA,143751.00,2255.626626,S,04527.650682,W,1,15,0.6,546.0,M,-4.3,M,,*72
$PGLOR,5,STA,143751.00,-0.002,0.000,297,1,6,0,P,F,L,0,C,3,S,0002,20,1,R,33F4,TPEF,19,37,LC,,*4A
$PGLOR,1,UNC,143751.00,0.016,6.0,3.9,0.18,5.46,5.4,2.7,59.8*1D
$PGLOR,2,SAT,3,1,R05,028,3F,G10,028,1F,G18,027,1F,R20,021,1B,R19,026,3F,R06,022,1F*37
$PGLOR,2,SAT,3,2,G21,026,1F,G26,019,33,G16,020,3B,G32,037,1F,G27,019,30,G14,036,1F*30
$PGLOR,2,SAT,3,3,G29,030,1F,R04,029,3F,G15,026,33,R21,018,33,G20,010,30,R18,007,30*25
$PGLOR,2,SIO,TxERR,0,RxERR,0,TxCNT,432,RxCNT,4130,MLFRMPKT,0,DTMS,999,DTIN,47,57,DTOUT,838,939,HATMD,55*1E
$PGLOR,3,PWR,mA,26.5,RFTm,999,OscTm,1000,MeasTm,1000,UTC,143751.00*0B
$GPGSV,3,1,12,10,69,250,30,18,56,160,30,21,43,131,27,26,34,304,20*78
$GPGSV,3,2,12,16,34,265,22,32,30,003,37,27,29,217,19,14,25,004,36*7E
$GPGSV,3,3,12,29,21,045,33,15,17,131,30,20,04,132,13,08,00,219,*77
$GLGSV,2,1,07,69,72,168,28,84,48,176,26,83,45,086,29,70,45,323,24*67
$GLGSV,2,2,07,68,19,153,29,85,09,213,19,82,02,051,11*58
$GPGSA,A,3,10,14,15,16,18,21,26,29,32,,,,2.2,1.2,1.9*3A
$GNGSA,A,3,10,14,15,16,18,21,26,29,32,,,,2.2,1.2,1.9*24
$GNGSA,A,3,68,69,70,83,84,85,,,,,,,2.2,1.2,1.9*2B
$QZGSA,A,3,,,,,,,,,,,,,2.2,1.2,1.9*25
$IMGSA,A,3,,,,,,,,,,,,,2.2,1.2,1.9*2A
$PGLOR,1,FIX,1.0,1.0*20
$GPRMC,143751.00,A,2255.626626,S,04527.650682,W,000.0,,020516,,,A*71
$PGLOR,SPL,20160502113757.7,POS,20160502143751.000,-22.927110,-45.460845,6,6,0,542,4,1.100000
$GPGGA,143752.00,2255.626626,S,04527.650682,W,1,15,0.8,546.0,M,-4.3,M,,*7F
$PGLOR,5,STA,143752.00,-0.002,0.000,297,1,8,0,P,F,L,0,C,3,S,0002,20,1,R,33F4,TPEF,19,38,LC,,*48
$PGLOR,1,UNC,143752.00,0.018,8.0,3.9,0.20,5.84,7.4,3.1,63.1*1E
$PGLOR,2,SAT,3,1,R05,027,3F,G10,029,1F,G18,029,1F,R20,023,1B,R19,029,3F,R06,024,1B*38
$PGLOR,2,SAT,3,2,G21,026,1F,G26,015,3B,G16,020,3F,G32,033,1F,G27,007,30,G14,034,1F*40
$PGLOR,2,SAT,3,3,G29,028,1F,R04,027,33,G15,027,33,R21,018,33,G20,007,30,R18,007,30*50
$PGLOR,2,SIO,TxERR,0,RxERR,0,TxCNT,362,RxCNT,4007,MLFRMPKT,0,DTMS,999,DTIN,26,38,DTOUT,870,959,HATMD,54*1C
$PGLOR,3,PWR,mA,26.5,RFTm,1000,OscTm,1000,MeasTm,1000,UTC,143752.00*30
$GPGSV,3,1,12,10,69,250,30,18,56,160,30,21,43,131,27,26,34,304,20*78
$GPGSV,3,2,12,16,34,265,21,32,30,003,36,27,29,217,18,14,25,004,35*7E
$GPGSV,3,3,12,29,21,045,33,15,17,131,30,20,04,132,12,08,00,219,*76
$GLGSV,2,1,07,69,72,168,28,84,48,176,25,83,45,086,29,70,45,323,24*64
$GLGSV,2,2,07,68,19,153,29,85,09,213,19,82,02,051,11*58
$GPGSA,A,3,10,14,15,16,18,21,26,29,32,,,,3.0,1.3,2.7*35
$GNGSA,A,3,10,14,15,16,18,21,26,29,32,,,,3.0,1.3,2.7*2B
$GNGSA,A,3,68,69,70,83,84,85,,,,,,,3.0,1.3,2.7*24
$QZGSA,A,3,,,,,,,,,,,,,3.0,1.3,2.7*2A
$IMGSA,A,3,,,,,,,,,,,,,3.0,1.3,2.7*25
$PGLOR,1,FIX,1.0,1.0*20
$GPRMC,143752.00,A,2255.626626,S,04527.650682,W,000.0,,020516,,,A*72
$PGLOR,SPL,20160502113758.7,POS,20160502143752.000,-22.927110,-45.460845,8,8,0,542,4,1.100000
$GPGGA,143753.00,2255.626626,S,04527.650682,W,1,15,0.8,546.0,M,-4.3,M,,*7E
$PGLOR,5,STA,143753.00,-0.002,0.000,297,1,8,0,P,F,L,0,C,3,S,0002,20,1,R,33F4,TPEF,19,39,LC,,*48
$PGLOR,1,UNC,143753.00,0.019,8.0,3.9,0.22,5.65,7.3,3.3,63.9*1E
$PGLOR,2,SAT,3,1,R05,029,3F,G10,031,1F,G18,030,1F,R20,029,1F,R19,028,3F,R06,027,1B*3B
$PGLOR,2,SAT,3,2,G21,027,1F,G26,019,3B,G16,022,3B,G32,032,1F,G27,019,30,G14,030,1B*45
$PGLOR,2,SAT,3,3,G29,030,1F,R04,024,33,G15,026,33,R21,019,33,G20,016,30,R18,007,30*5A
$PGLOR,2,SIO,TxERR,0,RxERR,0,TxCNT,339,RxCNT,4035,MLFRMPKT,0,DTMS,1000,DTIN,47,59,DTOUT,850,941,HATMD,54*20
$PGLOR,3,PWR,mA,26.5,RFTm,1000,OscTm,1000,MeasTm,1000,UTC,143753.00*31
$GPGSV,3,1,12,10,69,250,31,18,56,160,30,21,43,131,27,26,34,304,20*79
$GPGSV,3,2,12,16,34,265,22,32,30,003,36,27,29,217,19,14,25,004,35*7C
$GPGSV,3,3,12,29,21,045,32,15,17,131,29,20,04,132,16,08,00,219,*7B
$GLGSV,2,1,07,69,72,168,29,84,48,176,29,83,45,086,29,70,45,323,27*6A
$GLGSV,2,2,07,68,19,153,28,85,09,213,19,82,02,051,10*58
$GPGSA,A,3,10,14,15,16,18,21,26,29,32,,,,4.0,1.8,3.6*39
$GNGSA,A,3,10,14,15,16,18,21,26,29,32,,,,4.0,1.8,3.6*27
$GNGSA,A,3,68,69,70,83,84,85,,,,,,,4.0,1.8,3.6*28
$QZGSA,A,3,,,,,,,,,,,,,4.0,1.8,3.6*26
$IMGSA,A,3,,,,,,,,,,,,,4.0,1.8,3.6*29
$PGLOR,1,FIX,1.0,1.0*20
$GPRMC,143753.00,A,2255.626626,S,04527.650682,W,000.0,,020516,,,A*73
$PGLOR,SPL,20160502113759.7,POS,20160502143753.000,-22.927110,-45.460845,8,8,0,542,4,1.100000
$GPGGA,143754.00,2255.626626,S,04527.650682,W,1,15,0.8,546.0,M,-4.3,M,,*79
$PGLOR,5,STA,143754.00,-0.002,0.000,297,1,8,0,P,F,L,0,C,3,S,0002,20,1,R,33F4,TPEF,19,40,LC,,*41
$PGLOR,1,UNC,143754.00,0.020,8.0,3.8,0.18,5.19,7.2,3.6,68.4*12
$PGLOR,2,SAT,3,1,R05,030,3F,G10,032,1F,G18,031,1F,R20,029,1F,R19,025,3B,R06,026,1F*3D
$PGLOR,2,SAT,3,2,G21,027,1B,G26,021,3F,G16,022,3F,G32,034,1F,G27,022,30,G14,027,1B*42
$PGLOR,2,SAT,3,3,G29,029,1F,R04,023,33,G15,026,33,R21,024,33,G20,015,30,R18,016,30*58
$PGLOR,2,SIO,TxERR,0,RxERR,0,TxCNT,477,RxCNT,4015,MLFRMPKT,0,DTMS,1000,DTIN,46,56,DTOUT,849,941,HATMD,54*29
$PGLOR,3,PWR,mA,26.5,RFTm,1000,OscTm,1000,MeasTm,1000,UTC,143754.00*36
$GPGSV,3,1,12,10,69,250,32,18,56,160,31,21,43,131,27,26,34,304,21*7A
$GPGSV,3,2,12,16,34,265,22,32,30,003,36,27,29,217,22,14,25,004,34*75
$GPGSV,3,3,12,29,21,045,32,15,17,131,29,20,04,132,16,08,00,219,*7B
$GLGSV,2,1,07,69,72,168,30,84,48,176,29,83,45,086,29,70,45,323,27*62
$GLGSV,2,2,07,68,19,153,28,85,09,213,24,82,02,051,16*50
$GPGSA,A,3,10,14,15,16,18,21,26,29,32,,,,2.8,1.2,2.5*3F
$GNGSA,A,3,10,14,15,16,18,21,26,29,32,,,,2.8,1.2,2.5*21
$GNGSA,A,3,68,69,70,83,84,85,,,,,,,2.8,1.2,2.5*2E
$QZGSA,A,3,,,,,,,,,,,,,2.8,1.2,2.5*20
$IMGSA,A,3,,,,,,,,,,,,,2.8,1.2,2.5*2F
$PGLOR,1,FIX,1.0,1.0*20
$GPRMC,143754.00,A,2255.626626,S,04527.650682,W,000.0,,020516,,,A*74
$PGLOR,SPL,20160502113800.7,POS,20160502143754.000,-22.927110,-45.460845,8,8,0,542,4,1.100000
$GPGGA,143755.00,2255.626626,S,04527.650682,W,1,15,0.8,546.0,M,-4.3,M,,*78
$PGLOR,5,STA,143755.00,-0.002,0.000,297,1,8,0,P,F,L,0,C,3,S,0002,20,1,R,33F4,TPEF,19,41,LC,,*41
$PGLOR,1,UNC,143755.00,0.020,8.0,3.8,0.17,3.34,7.0,3.9,72.5*12
$PGLOR,2,SAT,3,1,R05,029,3F,G10,033,1F,G18,031,1F,R20,028,1F,R19,025,3B,R06,025,1F*36
$PGLOR,2,SAT,3,2,G21,025,1B,G26,026,3F,G16,027,3F,G32,035,1F,G27,023,30,G14,032,1F*42
$PGLOR,2,SAT,3,3,G29,028,1F,R04,026,33,G15,026,33,R21,020,33,G20,007,30,R18,007,30*5B
$PGLOR,2,SIO,TxERR,0,RxERR,0,TxCNT,338,RxCNT,4087,MLFRMPKT,0,DTMS,1000,DTIN,47,58,DTOUT,849,942,HATMD,54*22
$PGLOR,3,PWR,mA,26.5,RFTm,1000,OscTm,1000,MeasTm,1000,UTC,143755.00*37
$GPGSV,3,1,12,10,69,250,33,18,56,160,31,21,43,131,27,26,34,304,26*7C
$GPGSV,3,2,12,16,34,265,27,32,30,003,36,27,29,217,23,14,25,004,34*71
$GPGSV,3,3,12,29,21,045,32,15,17,131,29,20,04,132,15,08,00,219,*78
$GLGSV,2,1,07,69,72,168,30,84,48,176,29,83,45,086,28,70,45,323,27*63
$GLGSV,2,2,07,68,19,153,27,85,09,213,24,82,02,051,15*5C
$GPGSA,A,3,10,14,15,16,18,21,26,29,32,,,,2.8,1.2,2.5*3F
$GNGSA,A,3,10,14,15,16,18,21,26,29,32,,,,2.8,1.2,2.5*21
$GNGSA,A,3,68,69,70,83,84,85,,,,,,,2.8,1.2,2.5*2E
$QZGSA,A,3,,,,,,,,,,,,,2.8,1.2,2.5*20
$IMGSA,A,3,,,,,,,,,,,,,2.8,1.2,2.5*2F
$PGLOR,1,FIX,1.0,1.0*20
$GPRMC,143755.00,A,2255.626626,S,04527.650682,W,000.0,,020516,,,A*75
$PGLOR,SPL,20160502113801.7,POS,20160502143755.000,-22.927110,-45.460845,8,8,0,542,4,1.100000
$GPGGA,143756.00,2255.630329,S,04527.647369,W,1,15,0.8,546.1,M,-4.3,M,,*71
$PGLOR,5,STA,143756.00,-0.002,0.000,297,1,8,1,P,F,L,0,C,3,S,0002,29,1,R,33F4,TPEF,19,42,LC,,*49
$PGLOR,1,UNC,143756.00,0.020,8.0,3.8,0.14,2.10,7.1,3.7,74.3*1A
$PGLOR,2,SAT,3,1,R05,028,3F,G10,034,1F,G18,029,1F,R20,028,1B,R19,028,3F,R06,024,1F*35
$PGLOR,2,SAT,3,2,G21,024,1B,G26,028,33,G16,031,3F,G32,035,1F,G27,022,30,G14,035,1F*39
$PGLOR,2,SAT,3,3,G29,027,1F,R04,026,33,G15,029,3B,R21,018,33,G20,007,30,R18,007,30*21
$PGLOR,2,SIO,TxERR,0,RxERR,0,TxCNT,371,RxCNT,4003,MLFRMPKT,0,DTMS,1001,DTIN,43,50,DTOUT,847,947,HATMD,55*24
$PGLOR,3,PWR,mA,26.5,RFTm,1000,OscTm,1000,MeasTm,1000,UTC,143756.00*34
$GPGSV,3,1,12,10,69,250,34,18,56,160,31,21,43,131,27,26,34,304,28*75
$GPGSV,3,2,12,16,34,265,31,32,30,003,36,27,29,217,23,14,25,004,35*77
$GPGSV,3,3,12,29,21,045,31,15,17,131,29,20,04,132,14,08,00,219,*7A
$GLGSV,2,1,07,69,72,168,30,84,48,176,29,83,45,086,28,70,45,323,27*63
$GLGSV,2,2,07,68,19,153,27,85,09,213,23,82,02,051,14*5A
$GPGSA,A,3,10,14,15,16,18,21,26,29,32,,,,3.1,1.3,2.8*3B
$GNGSA,A,3,10,14,15,16,18,21,26,29,32,,,,3.1,1.3,2.8*25
$GNGSA,A,3,68,69,70,83,84,85,,,,,,,3.1,1.3,2.8*2A
$QZGSA,A,3,,,,,,,,,,,,,3.1,1.3,2.8*24
$IMGSA,A,3,,,,,,,,,,,,,3.1,1.3,2.8*2B
$PGLOR,1,FIX,1.0,1.0*20
$GPRMC,143756.00,A,2255.630329,S,04527.647369,W,005.9,,020516,,,A*71
$PGLOR,SPL,20160502113802.7,POS,20160502143756.000,-22.927172,-45.460789,8,8,0,542,4,1.100000
$GPGGA,143757.00,2255.631332,S,04527.647173,W,1,15,0.8,546.2,M,-4.3,M,,*71
$PGLOR,5,STA,143757.00,-0.002,0.000,298,1,8,1,P,F,L,0,C,3,S,0002,31,1,R,33F4,TPEF,19,43,LC,,*4F
$PGLOR,1,UNC,143757.00,0.018,8.0,3.8,0.16,1.99,7.0,3.8,75.0*1C
$PGLOR,2,SAT,3,1,R05,029,3F,G10,034,1F,G18,028,1F,R20,027,1F,R19,028,3F,R06,024,1B*3A
$PGLOR,2,SAT,3,2,G21,026,1F,G26,030,33,G16,029,3F,G32,032,1F,G27,016,30,G14,031,1F*3B
$PGLOR,2,SAT,3,3,G29,025,1F,R04,028,33,G15,035,3F,R21,015,33,G20,007,30,R18,007,30*29
$PGLOR,2,SIO,TxERR,0,RxERR,0,TxCNT,337,RxCNT,4046,MLFRMPKT,0,DTMS,1000,DTIN,47,61,DTOUT,850,939,HATMD,55*2F
$PGLOR,3,PWR,mA,26.5,RFTm,1000,OscTm,1000,MeasTm,1000,UTC,143757.00*35
$GPGSV,3,1,12,10,69,250,34,18,56,160,31,21,43,131,27,26,34,304,30*7C
$GPGSV,3,2,12,16,34,265,31,32,30,003,35,27,29,217,23,14,25,004,34*75
$GPGSV,3,3,12,29,21,045,30,15,17,131,35,20,04,132,13,08,00,219,*71
$GLGSV,2,1,07,69,72,168,30,84,48,176,29,83,45,086,28,70,45,323,26*62
$GLGSV,2,2,07,68,19,153,28,85,09,213,22,82,02,051,13*53
$GPGSA,A,3,10,14,15,16,18,21,26,29,32,,,,2.0,1.0,1.7*34
$GNGSA,A,3,10,14,15,16,18,21,26,29,32,,,,2.0,1.0,1.7*2A
$GNGSA,A,3,68,69,70,83,84,85,,,,,,,2.0,1.0,1.7*25
$QZGSA,A,3,,,,,,,,,,,,,2.0,1.0,1.7*2B
$IMGSA,A,3,,,,,,,,,,,,,2.0,1.0,1.7*24
$PGLOR,1,FIX,1.0,1.0*20
$GPRMC,143757.00,A,2255.631332,S,04527.647173,W,007.3,,020516,,,A*7A
$PGLOR,SPL,20160502113803.7,POS,20160502143757.000,-22.927189,-45.460786,8,8,0,542,4,1.100000
$GPGGA,143758.00,2255.632917,S,04527.646820,W,1,15,0.8,547.3,M,-4.3,M,,*7E
$PGLOR,5,STA,143758.00,-0.002,0.000,297,1,8,1,P,F,L,0,C,3,S,0002,34,1,R,33F4,TPEF,19,44,LC,,*4D
$PGLOR,1,UNC,143758.00,0.017,8.0,3.4,0.17,1.62,7.1,3.7,77.4*1D
$PGLOR,2,SAT,3,1,R05,030,3F,G10,034,1F,G18,024,1F,R20,024,1F,R19,027,3F,R06,023,1F*31
$PGLOR,2,SAT,3,2,G21,025,1F,G26,034,3F,G16,030,3F,G32,029,1F,G27,026,30,G14,026,1B*4A
$PGLOR,2,SAT,3,3,G29,027,1F,R04,024,33,G15,031,37,R21,015,33,G20,007,30,R18,017,30*53
$PGLOR,2,SIO,TxERR,0,RxERR,0,TxCNT,373,RxCNT,4003,MLFRMPKT,0,DTMS,1000,DTIN,47,59,DTOUT,849,938,HATMD,55*2C
$PGLOR,3,PWR,mA,26.5,RFTm,1000,OscTm,1000,MeasTm,1000,UTC,143758.00*3A
$GPGSV,3,1,12,10,69,250,34,18,56,160,30,21,43,131,27,26,34,304,34*79
$GPGSV,3,2,12,16,34,265,31,32,30,003,35,27,29,217,26,14,25,004,33*77
$GPGSV,3,3,12,29,21,045,30,15,17,131,35,20,04,132,13,08,00,219,*71
$GLGSV,2,1,07,69,72,168,30,84,48,176,28,83,45,086,28,70,45,323,26*63
$GLGSV,2,2,07,68,19,153,27,85,09,213,22,82,02,051,17*58
$GPGSA,A,3,10,14,15,16,18,21,26,29,32,,,,1.9,0.9,1.7*36
$GNGSA,A,3,10,14,15,16,18,21,26,29,32,,,,1.9,0.9,1.7*28
$GNGSA,A,3,68,69,70,83,84,85,,,,,,,1.9,0.9,1.7*27
$QZGSA,A,3,,,,,,,,,,,,,1.9,0.9,1.7*29
$IMGSA,A,3,,,,,,,,,,,,,1.9,0.9,1.7*26
$PGLOR,1,FIX,1.0,1.0*20
$GPRMC,143758.00,A,2255.632917,S,04527.646820,W,008.1,,020516,,,A*78
$PGLOR,SPL,20160502113804.7,POS,20160502143758.000,-22.927215,-45.460780,8,8,0,543,3,1.100000
$GPGGA,143759.00,2255.635455,S,04527.646454,W,1,14,1.2,548.1,M,-4.3,M,,*7B
$PGLOR,5,STA,143759.00,-0.002,0.000,297,1,12,3,P,F,L,0,C,3,S,0002,38,1,R,33F4,TPEF,19,45,LC,,*78
$PGLOR,1,UNC,143759.00,0.017,12.0,3.2,0.17,1.20,10.6,5.6,79.9*12
$PGLOR,2,SAT,3,1,R05,028,3F,G10,034,1F,G18,022,13,R20,023,1B,R19,029,3F,R06,022,1F*47
$PGLOR,2,SAT,3,2,G21,023,1F,G26,034,3F,G16,029,3F,G32,028,1F,G27,025,30,G14,024,1F*40
$PGLOR,2,SAT,3,3,G29,023,1B,R04,026,33,G15,029,3F,R21,017,30,G20,007,30,R18,007,30*29
$PGLOR,2,SIO,TxERR,0,RxERR,0,TxCNT,444,RxCNT,4058,MLFRMPKT,0,DTMS,1001,DTIN,44,55,DTOUT,640,945,HATMD,56*21
$PGLOR,3,PWR,mA,26.5,RFTm,1001,OscTm,1000,MeasTm,1000,UTC,143759.00*3A
$GPGSV,3,1,12,10,69,250,34,18,56,160,29,21,43,131,26,26,34,304,34*70
$GPGSV,3,2,12,16,34,265,31,32,30,003,34,27,29,217,26,14,25,004,32*77
$GPGSV,3,3,12,29,21,045,29,15,17,131,34,20,04,132,12,08,00,219,*79
$GLGSV,2,1,07,69,72,168,30,84,48,176,28,83,45,086,29,70,45,323,26*62
$GLGSV,2,2,07,68,19,153,27,85,09,213,21,82,02,051,16*5A
$GPGSA,A,3,10,14,15,16,18,21,26,29,32,,,,2.0,1.0,1.7*34
$GNGSA,A,3,10,14,15,16,18,21,26,29,32,,,,2.0,1.0,1.7*2A
$GNGSA,A,3,68,69,70,83,84,,,,,,,,2.0,1.0,1.7*28
$QZGSA,A,3,,,,,,,,,,,,,2.0,1.0,1.7*2B
$IMGSA,A,3,,,,,,,,,,,,,2.0,1.0,1.7*24
$PGLOR,1,FIX,1.0,1.0*20
$GPRMC,143759.00,A,2255.635455,S,04527.646454,W,010.1,172.4,020516,,,A*5D
$PGLOR,SPL,20160502113805.7,POS,20160502143759.000,-22.927258,-45.460774,12,12,0,544,3,1.100000
$GPGGA,143800.00,2255.638886,S,04527.646101,W,1,15,1.2,549.0,M,-4.3,M,,*73
$PGLOR,5,STA,143800.00,-0.002,0.000,296,1,12,3,P,F,L,0,C,3,S,0002,45,1,R,33F4,TPEF,19,46,LC,,*73
$PGLOR,1,UNC,143800.00,0.017,12.0,3.0,0.16,0.93,10.6,5.7,81.2*16
$PGLOR,2,SAT,3,1,R05,029,3F,G10,033,1F,G18,021,17,R20,023,1B,R19,031,3F,R06,026,1F*4B
$PGLOR,2,SAT,3,2,G21,023,1F,G26,033,3F,G16,028,3F,G32,029,1F,G27,027,3B,G14,024,1F*37
$PGLOR,2,SAT,3,3,G29,027,17,R04,029,3F,G15,025,33,R21,020,30,G20,010,30,R18,014,30*5B
$PGLOR,2,SIO,TxERR,0,RxERR,0,TxCNT,384,RxCNT,4084,MLFRMPKT,0,DTMS,998,DTIN,51,58,DTOUT,843,938,HATMD,54*1F
$PGLOR,3,PWR,mA,26.5,RFTm,999,OscTm,1000,MeasTm,1000,UTC,143800.00*00
$GPGSV,3,1,12,10,69,250,34,18,56,160,29,21,43,131,26,26,34,304,34*70
$GPGSV,3,2,12,16,34,265,30,32,30,003,33,27,29,217,27,14,25,004,32*70
$GPGSV,3,3,12,29,21,045,29,15,17,131,33,20,04,132,12,08,00,219,*7E
$GLGSV,2,1,07,69,71,168,29,84,48,176,27,83,45,086,31,70,45,323,26*6F
$GLGSV,2,2,07,68,19,153,29,85,09,213,21,82,02,051,16*54
$GPGSA,A,3,10,14,15,16,18,21,26,27,29,32,,,1.8,0.9,1.6*33
$GNGSA,A,3,10,14,15,16,18,21,26,27,29,32,,,1.8,0.9,1.6*2D
$GNGSA,A,3,68,69,70,83,84,,,,,,,,1.8,0.9,1.6*2A
$QZGSA,A,3,,,,,,,,,,,,,1.8,0.9,1.6*29
$IMGSA,A,3,,,,,,,,,,,,,1.8,0.9,1.6*26
$PGLOR,1,FIX,1.0,1.0*20
$GPRMC,143800.00,A,2255.638886,S,04527.646101,W,012.3,174.3,020516,,,A*55
$PGLOR,SPL,20160502113806.7,POS,20160502143800.000,-22.927315,-45.460768,12,12,0,545,3,1.100000
$GPGGA,143801.00,2255.642309,S,04527.645736,W,1,15,1.2,549.9,M,-4.3,M,,*7B
$PGLOR,5,STA,143801.00,-0.002,0.000,296,1,12,3,P,F,L,0,C,3,S,0002,51,1,R,33F4,TPEF,19,47,LC,,*76
$PGLOR,1,UNC,143801.00,0.017,12.0,3.0,0.16,0.98,10.5,5.7,81.8*15
$PGLOR,2,SAT,3,1,R05,029,3F,G10,032,1F,G18,022,1B,R20,023,1B,R19,031,3F,R06,026,1F*3C
$PGLOR,2,SAT,3,2,G21,023,1F,G26,032,3F,G16,029,3F,G32,029,1F,G27,026,3F,G14,024,17*43
$PGLOR,2,SAT,3,3,G29,025,17,R04,029,3F,G15,025,33,R21,020,30,G20,007,30,R18,009,30*53
$PGLOR,2,SIO,TxERR,0,RxERR,0,TxCNT,349,RxCNT,4072,MLFRMPKT,0,DTMS,1001,DTIN,46,57,DTOUT,552,944,HATMD,55*21
$PGLOR,3,PWR,mA,26.5,RFTm,1001,OscTm,1000,MeasTm,1000,UTC,143801.00*38
$GPGSV,3,1,12,10,69,250,34,18,56,160,28,21,43,131,26,26,34,304,34*71
$GPGSV,3,2,12,16,34,265,30,32,30,003,33,27,29,217,27,14,25,004,31*73
$GPGSV,3,3,12,29,21,045,29,15,17,131,32,20,04,132,11,08,00,219,*7C
$GLGSV,2,1,07,69,71,168,29,84,48,176,27,83,45,086,31,70,45,323,26*6F
$GLGSV,2,2,07,68,19,153,29,85,09,213,21,82,02,051,15*57
$GPGSA,A,3,10,14,15,16,18,21,26,27,29,32,,,1.7,0.8,1.5*3E
$GNGSA,A,3,10,14,15,16,18,21,26,27,29,32,,,1.7,0.8,1.5*20
$GNGSA,A,3,68,69,70,83,84,,,,,,,,1.7,0.8,1.5*27
$QZGSA,A,3,,,,,,,,,,,,,1.7,0.8,1.5*24
$IMGSA,A,3,,,,,,,,,,,,,1.7,0.8,1.5*2B
$PGLOR,1,FIX,1.0,1.0*20
$GPRMC,143801.00,A,2255.642309,S,04527.645736,W,012.3,175.3,020516,,,A*55
$PGLOR,SPL,20160502113807.7,POS,20160502143801.000,-22.927372,-45.460762,12,12,0,546,3,1.100000
$GPGGA,143802.00,2255.646036,S,04527.645527,W,1,15,1.2,550.8,M,-4.3,M,,*78
$PGLOR,5,STA,143802.00,-0.002,0.000,297,1,12,3,P,F,L,0,C,3,S,0002,58,1,R,33F4,TPEF,19,48,LC,,*72
$PGLOR,1,UNC,143802.00,0.017,12.0,3.0,0.21,0.97,10.5,5.8,83.6*1E
$PGLOR,2,SAT,3,1,R05,028,3F,G10,033,1F,G18,022,1F,R20,023,1B,R19,031,3F,R06,028,1B*32
$PGLOR,2,SAT,3,2,G21,024,17,G26,032,3F,G16,030,3F,G32,029,17,G27,023,3B,G14,024,1F*3C
$PGLOR,2,SAT,3,3,G29,020,11,R04,025,3B,G15,031,3F,R21,021,30,G20,007,30,R18,016,30*27
$PGLOR,2,SIO,TxERR,0,RxERR,0,TxCNT,370,RxCNT,4043,MLFRMPKT,0,DTMS,1000,DTIN,27,38,DTOUT,869,959,HATMD,55*2F
$PGLOR,3,PWR,mA,26.5,RFTm,999,OscTm,1000,MeasTm,1000,UTC,143802.00*02
$GPGSV,3,1,12,10,69,250,34,18,56,160,27,21,43,131,25,26,34,304,34*7D
$GPGSV,3,2,12,16,34,265,30,32,30,003,33,27,29,217,27,14,25,004,30*72
$GPGSV,3,3,12,29,21,045,28,15,17,131,32,20,04,132,11,08,00,219,*7D
$GLGSV,2,1,07,69,71,168,29,84,48,176,27,83,45,086,31,70,45,323,28*61
$GLGSV,2,2,07,68,19,153,29,85,09,213,21,82,02,051,16*54
$GPGSA,A,3,10,14,15,16,18,21,26,27,29,32,,,2.0,1.0,1.7*31
$GNGSA,A,3,10,14,15,16,18,21,26,27,29,32,,,2.0,1.0,1.7*2F
$GNGSA,A,3,68,69,70,83,84,,,,,,,,2.0,1.0,1.7*28
$QZGSA,A,3,,,,,,,,,,,,,2.0,1.0,1.7*2B
$IMGSA,A,3,,,,,,,,,,,,,2.0,1.0,1.7*24
$PGLOR,1,FIX,1.0,1.0*20
$GPRMC,143802.00,A,2255.646036,S,04527.645527,W,012.4,177.5,020516,,,A*5C
$PGLOR,SPL,20160502113808.7,POS,20160502143802.000,-22.927434,-45.460759,12,12,0,547,3,1.100000
$GPGGA,143803.00,2255.649961,S,04527.645282,W,1,15,0.8,551.6,M,-4.3,M,,*71
$PGLOR,5,STA,143803.00,-0.002,0.000,297,1,8,3,P,F,L,0,C,3,S,0002,65,1,R,33F4,TPEF,19,49,LC,,*47
$PGLOR,1,UNC,143803.00,0.017,8.0,3.0,0.14,0.79,6.9,4.0,85.3*13
$PGLOR,2,SAT,3,1,R05,027,3B,G10,032,1F,G18,021,1F,R20,023,1F,R19,031,3F,R06,027,1F*34
$PGLOR,2,SAT,3,2,G21,024,1F,G26,034,3F,G16,030,3F,G32,031,1F,G27,019,33,G14,024,1B*4F
$PGLOR,2,SAT,3,3,G29,018,13,R04,022,37,G15,033,3F,R21,007,30,G20,007,30,R18,012,30*5E
$PGLOR,2,SIO,TxERR,0,RxERR,0,TxCNT,354,RxCNT,4027,MLFRMPKT,0,DTMS,999,DTIN,50,56,DTOUT,845,941,HATMD,54*1D
$PGLOR,3,PWR,mA,26.5,RFTm,1000,OscTm,1000,MeasTm,1000,UTC,143803.00*3B
$GPGSV,3,1,12,10,69,250,33,18,56,160,27,21,43,131,25,26,34,304,34*7A
$GPGSV,3,2,12,16,34,265,30,32,30,003,32,27,29,217,26,14,25,004,29*7A
$GPGSV,3,3,12,29,21,045,27,15,17,131,33,20,04,132,11,08,00,219,*73
$GLGSV,2,1,07,69,71,168,29,84,48,176,26,83,45,086,31,70,45,323,28*60
$GLGSV,2,2,07,68,19,153,28,85,09,213,20,82,02,051,16*54
$GPGSA,A,3,10,14,15,16,18,21,26,27,29,32,,,1.9,0.9,1.7*33
$GNGSA,A,3,10,14,15,16,18,21,26,27,29,32,,,1.9,0.9,1.7*2D
$GNGSA,A,3,68,69,70,83,84,,,,,,,,1.9,0.9,1.7*2A
$QZGSA,A,3,,,,,,,,,,,,,1.9,0.9,1.7*29
$IMGSA,A,3,,,,,,,,,,,,,1.9,0.9,1.7*26
$PGLOR,1,FIX,1.0,1.0*20
$GPRMC,143803.00,A,2255.649961,S,04527.645282,W,012.4,176.8,020516,,,A*5D
$PGLOR,SPL,20160502113809.7,POS,20160502143803.000,-22.927499,-45.460755,8,8,0,547,3,1.100000
$GPGGA,143804.00,2255.653677,S,04527.645042,W,1,15,0.8,552.4,M,-4.3,M,,*7A
$PGLOR,5,STA,143804.00,-0.002,0.000,297,1,8,3,P,F,L,0,C,3,S,0002,72,1,R,33F4,TPEF,19,50,LC,,*4E
$PGLOR,1,UNC,143804.00,0.017,8.0,3.0,0.15,0.83,6.9,4.1,86.6*17
$PGLOR,2,SAT,3,1,R05,028,1B,G10,032,1F,G18,019,1F,R20,022,1B,R19,031,3F,R06,023,1B*37
$PGLOR,2,SAT,3,2,G21,023,17,G26,033,3F,G16,029,3F,G32,029,1F,G27,018,37,G14,024,1B*3A
$PGLOR,2,SAT,3,3,G29,021,17,R04,020,3F,G15,035,3F,R21,016,30,G20,007,30,R18,013,30*24
$PGLOR,2,SIO,TxERR,0,RxERR,0,TxCNT,444,RxCNT,4067,MLFRMPKT,0,DTMS,1002,DTIN,52,63,DTOUT,528,937,HATMD,56*24
$PGLOR,3,PWR,mA,26.5,RFTm,1001,OscTm,1000,MeasTm,1000,UTC,143804.00*3D
$GPGSV,3,1,12,10,69,250,33,18,56,159,26,21,43,131,25,26,34,304,34*71
$GPGSV,3,2,12,16,34,265,30,32,30,003,32,27,29,217,25,14,25,004,29*79
$GPGSV,3,3,12,29,21,045,26,15,17,131,35,20,03,132,10,08,00,219,*72
$GLGSV,2,1,07,69,71,168,29,84,48,176,26,83,45,086,31,70,45,323,27*6F
$GLGSV,2,2,07,68,19,153,27,85,09,213,19,82,02,051,16*51
$GPGSA,A,3,10,14,15,16,18,21,26,27,29,32,,,1.8,0.8,1.6*32
$GNGSA,A,3,10,14,15,16,18,21,26,27,29,32,,,1.8,0.8,1.6*2C
$GNGSA,A,3,68,69,70,83,84,,,,,,,,1.8,0.8,1.6*2B
$QZGSA,A,3,,,,,,,,,,,,,1.8,0.8,1.6*28
$IMGSA,A,3,,,,,,,,,,,,,1.8,0.8,1.6*27
$PGLOR,1,FIX,1.0,1.0*20
$GPRMC,143804.00,A,2255.653677,S,04527.645042,W,012.5,176.9,020516,,,A*57
$PGLOR,SPL,20160502113810.7,POS,20160502143804.000,-22.927561,-45.460751,8,8,0,548,3,1.100000
$GPGGA,143805.00,2255.657232,S,04527.644786,W,1,15,0.8,552.7,M,-4.3,M,,*77
$PGLOR,5,STA,143805.00,-0.002,0.000,297,1,8,3,P,F,L,0,C,3,S,0002,79,1,R,33F4,TPEF,19,51,LC,,*45
$PGLOR,1,UNC,143805.00,0.018,8.0,3.0,0.20,1.05,6.9,4.0,87.1*17
$PGLOR,2,SAT,3,1,R05,027,1F,G10,031,1F,G18,022,1F,R20,021,1F,R19,030,3F,R06,021,1F*37
$PGLOR,2,SAT,3,2,G21,023,1B,G26,032,3F,G16,026,3F,G32,028,1F,G27,017,37,G14,026,1F*49
$PGLOR,2,SAT,3,3,G29,025,1F,R04,020,33,G15,031,33,R21,017,30,G20,007,30,R18,010,30*57
$PGLOR,2,SIO,TxERR,0,RxERR,0,TxCNT,371,RxCNT,4083,MLFRMPKT,0,DTMS,999,DTIN,47,61,DTOUT,848,937,HATMD,55*1B
$PGLOR,3,PWR,mA,26.5,RFTm,1000,OscTm,1000,MeasTm,1000,UTC,143805.00*3D
$GPGSV,3,1,12,10,69,250,33,18,56,159,26,21,43,131,25,26,34,304,33*76
$GPGSV,3,2,12,16,34,265,30,32,30,003,32,27,29,217,24,14,25,004,29*78
$GPGSV,3,3,12,29,21,045,26,15,17,131,34,20,03,132,10,08,00,219,*73
$GLGSV,2,1,07,69,71,168,29,84,48,176,25,83,45,086,31,70,45,323,27*6C
$GLGSV,2,2,07,68,19,153,27,85,09,213,19,82,02,051,15*52
$GPGSA,A,3,10,14,15,16,18,21,26,27,29,32,,,2.1,0.9,1.9*36
$GNGSA,A,3,10,14,15,16,18,21,26,27,29,32,,,2.1,0.9,1.9*28
$GNGSA,A,3,68,69,70,83,84,,,,,,,,2.1,0.9,1.9*2F
$QZGSA,A,3,,,,,,,,,,,,,2.1,0.9,1.9*2C
$IMGSA,A,3,,,,,,,,,,,,,2.1,0.9,1.9*23
$PGLOR,1,FIX,1.0,1.0*20
$GPRMC,143805.00,A,2255.657232,S,04527.644786,W,013.2,178.4,020516,,,A*5C
$PGLOR,SPL,20160502113811.7,POS,20160502143805.000,-22.927621,-45.460746,8,8,0,548,3,1.100000
$GPGGA,143806.00,2255.660641,S,04527.644520,W,1,15,0.8,552.7,M,-4.3,M,,*7E
$PGLOR,5,STA,143806.00,-0.002,0.000,298,1,8,3,P,F,L,0,C,3,S,0002,85,5,R,33F4,TPEF,19,52,LC,,*4D
$PGLOR,1,UNC,143806.00,0.018,8.0,3.0,0.21,1.14,6.9,4.0,87.5*11
$PGLOR,2,SAT,3,1,R05,027,1F,G10,030,1F,G18,021,17,R20,022,1F,R19,030,3F,R06,022,1B*40
$PGLOR,2,SAT,3,2,G21,025,1F,G26,028,3F,G16,025,3F,G32,028,1F,G27,019,3B,G14,026,1B*3C
$PGLOR,2,SAT,3,3,G29,027,1F,R04,020,33,G15,026,33,R21,022,30,G20,007,30,R18,011,30*54
$PGLOR,2,SIO,TxERR,0,RxERR,0,TxCNT,336,RxCNT,4067,MLFRMPKT,0,DTMS,1000,DTIN,43,58,DTOUT,511,942,HATMD,55*27
$PGLOR,3,PWR,mA,26.5,RFTm,1000,OscTm,1000,MeasTm,1000,UTC,143806.00*3E
$GPGSV,3,1,12,10,69,250,33,18,56,159,25,21,43,131,25,26,34,304,33*75
$GPGSV,3,2,12,16,34,265,29,32,30,003,31,27,29,217,24,14,25,004,28*72
$GPGSV,3,3,12,29,21,045,27,15,17,131,34,20,03,132,10,08,00,219,*72
$GLGSV,2,1,07,69,71,168,29,84,48,176,25,83,45,086,31,70,45,323,26*6D
$GLGSV,2,2,07,68,19,153,26,85,09,213,22,82,02,051,15*5B
$GPGSA,A,3,10,14,15,16,18,21,26,27,29,32,,,2.8,1.1,2.6*3A
$GNGSA,A,3,10,14,15,16,18,21,26,27,29,32,,,2.8,1.1,2.6*24
$GNGSA,A,3,68,69,70,83,84,,,,,,,,2.8,1.1,2.6*23
$QZGSA,A,3,,,,,,,,,,,,,2.8,1.1,2.6*20
$IMGSA,A,3,,,,,,,,,,,,,2.8,1.1,2.6*2F
$PGLOR,1,FIX,1.0,1.0*20
$GPRMC,143806.00,A,2255.660641,S,04527.644520,W,013.0,177.8,020516,,,A*54
$PGLOR,SPL,20160502113812.7,POS,20160502143806.000,-22.927677,-45.460742,8,8,0,548,3,1.100000
$GPGGA,143807.00,2255.664018,S,04527.644251,W,1,15,0.8,552.9,M,-4.3,M,,*7E
$PGLOR,5,STA,143807.00,-0.002,0.000,297,1,8,3,P,F,L,0,C,3,S,0002,91,5,R,33F4,TPEF,19,53,LC,,*47
$PGLOR,1,UNC,143807.00,0.019,8.0,3.0,0.20,1.31,6.9,4.0,87.5*17
$PGLOR,2,SAT,3,1,R05,028,1F,G10,029,1F,G18,023,1B,R20,023,1F,R19,031,3B,R06,021,1B*37
$PGLOR,2,SAT,3,2,G21,024,1F,G26,026,3F,G16,023,3F,G32,029,1F,G27,021,3B,G14,022,17*4E
$PGLOR,2,SAT,3,3,G29,030,1F,R04,019,33,G15,022,33,R21,025,30,G20,007,30,R18,019,30*53
$PGLOR,2,SIO,TxERR,0,RxERR,0,TxCNT,371,RxCNT,4039,MLFRMPKT,0,DTMS,1000,DTIN,51,62,DTOUT,845,935,HATMD,55*29
$PGLOR,3,PWR,mA,26.5,RFTm,1000,OscTm,1000,MeasTm,1000,UTC,143807.00*3F
$GPGSV,3,1,12,10,69,250,32,18,56,159,25,21,43,131,25,26,34,304,32*75
$GPGSV,3,2,12,16,34,265,29,32,30,003,31,27,29,217,23,14,25,004,28*75
$GPGSV,3,3,12,29,21,045,30,15,17,132,32,20,03,132,09,08,00,219,*79
$GLGSV,2,1,07,69,71,168,28,84,48,176,25,83,45,086,31,70,45,323,26*6C
$GLGSV,2,2,07,68,19,153,25,85,09,213,25,82,02,051,19*53
$GPGSA,A,3,10,14,15,16,18,21,26,27,29,32,,,2.9,1.2,2.6*38
$GNGSA,A,3,10,14,15,16,18,21,26,27,29,32,,,2.9,1.2,2.6*26
$GNGSA,A,3,68,69,70,83,84,,,,,,,,2.9,1.2,2.6*21
$QZGSA,A,3,,,,,,,,,,,,,2.9,1.2,2.6*22
$IMGSA,A,3,,,,,,,,,,,,,2.9,1.2,2.6*2D
$PGLOR,1,FIX,1.0,1.0*20
$GPRMC,143807.00,A,2255.664018,S,04527.644251,W,011.7,177.1,020516,,,A*56
$PGLOR,SPL,20160502113813.7,POS,20160502143807.000,-22.927734,-45.460738,8,8,0,549,3,1.100000
$GPGGA,143808.00,2255.667517,S,04527.643826,W,1,15,0.8,552.9,M,-4.3,M,,*75
$PGLOR,5,STA,143808.00,-0.002,0.000,298,1,8,3,P,F,L,0,C,3,S,0002,98,5,R,33F4,TPEF,19,54,LC,,*49
$PGLOR,1,UNC,143808.00,0.019,8.0,3.0,0.23,1.72,6.9,4.0,86.8*10
$PGLOR,2,SAT,3,1,R05,027,1F,G10,030,1F,G18,022,1F,R20,024,1F,R19,029,1F,R06,020,1B*3C
$PGLOR,2,SAT,3,2,G21,023,1F,G26,024,37,G16,022,3F,G32,029,1F,G27,023,3F,G14,025,1F*4B
$PGLOR,2,SAT,3,3,G29,031,1F,R04,020,33,G15,019,33,R21,018,30,G20,007,30,R18,021,30*55
$PGLOR,2,SIO,TxERR,0,RxERR,0,TxCNT,354,RxCNT,4071,MLFRMPKT,0,DTMS,1000,DTIN,49,59,DTOUT,512,941,HATMD,55*2F
$PGLOR,3,PWR,mA,26.5,RFTm,999,OscTm,1000,MeasTm,1000,UTC,143808.00*08
$GPGSV,3,1,12,10,69,250,32,18,56,159,25,21,43,131,25,26,34,304,31*76
$GPGSV,3,2,12,16,34,265,28,32,30,003,31,27,29,217,23,14,25,004,27*7B
$GPGSV,3,3,12,29,21,045,31,15,17,132,31,20,03,132,09,08,00,219,*7B
$GLGSV,2,1,07,69,71,168,28,84,48,176,25,83,45,086,31,70,45,323,25*6F
$GLGSV,2,2,07,68,19,153,25,85,09,213,24,82,02,051,21*59
$GPGSA,A,3,10,14,15,16,18,21,26,27,29,32,,,2.1,0.9,1.9*36
$GNGSA,A,3,10,14,15,16,18,21,26,27,29,32,,,2.1,0.9,1.9*28
$GNGSA,A,3,68,69,70,83,84,,,,,,,,2.1,0.9,1.9*2F
$QZGSA,A,3,,,,,,,,,,,,,2.1,0.9,1.9*2C
$IMGSA,A,3,,,,,,,,,,,,,2.1,0.9,1.9*23
$PGLOR,1,FIX,1.0,1.0*20
$GPRMC,143808.00,A,2255.667517,S,04527.643826,W,011.0,176.2,020516,,,A*58
$PGLOR,SPL,20160502113814.7,POS,20160502143808.000,-22.927792,-45.460730,8,8,0,549,3,1.100000
$GPGGA,143809.00,2255.670356,S,04527.643420,W,1,15,0.8,552.7,M,-4.3,M,,*75
$PGLOR,5,STA,143809.00,-0.002,0.000,298,1,8,3,P,F,L,0,C,3,S,0002,103,5,R,33F4,TPEF,19,55,LC,,*7A
$PGLOR,1,UNC,143809.00,0.019,8.0,3.0,0.21,1.87,7.0,4.0,85.7*1D
$PGLOR,2,SAT,3,1,R05,028,1F,G10,031,1F,G18,021,17,R20,023,1B,R19,030,1F,R06,020,1B*4B
$PGLOR,2,SAT,3,2,G21,025,1B,G26,023,3F,G16,021,3F,G32,030,1F,G27,024,3F,G14,027,1F*31
$PGLOR,2,SAT,3,3,G29,030,1F,R04,020,33,G15,019,33,R21,022,30,G20,016,30,R18,007,30*59
$PGLOR,2,SIO,TxERR,0,RxERR,0,TxCNT,489,RxCNT,3986,MLFRMPKT,0,DTMS,999,DTIN,27,36,DTOUT,868,961,HATMD,54*14
$PGLOR,3,PWR,mA,26.5,RFTm,1000,OscTm,1000,MeasTm,1000,UTC,143809.00*31
$GPGSV,3,1,12,10,69,250,32,18,56,159,24,21,43,131,25,26,34,304,31*77
$GPGSV,3,2,12,16,34,266,27,32,30,003,31,27,29,217,24,14,25,004,27*70
$GPGSV,3,3,12,29,21,045,31,15,17,132,30,20,03,132,16,08,00,219,*74
$GLGSV,2,1,07,69,71,168,28,84,48,176,24,83,45,086,31,70,45,323,25*6E
$GLGSV,2,2,07,68,19,153,24,85,09,213,24,82,02,051,19*53
$GPGSA,A,3,10,14,15,16,18,21,26,27,29,32,,,2.2,1.0,2.0*37
$GNGSA,A,3,10,14,15,16,18,21,26,27,29,32,,,2.2,1.0,2.0*29
$GNGSA,A,3,68,69,70,83,84,,,,,,,,2.2,1.0,2.0*2E
$QZGSA,A,3,,,,,,,,,,,,,2.2,1.0,2.0*2D
$IMGSA,A,3,,,,,,,,,,,,,2.2,1.0,2.0*22
$PGLOR,1,FIX,1.0,1.0*20
$GPRMC,143809.00,A,2255.670356,S,04527.643420,W,009.4,175.7,020516,,,A*5D
$PGLOR,SPL,20160502113815.7,POS,20160502143809.000,-22.927839,-45.460724,8,8,0,548,3,1.100000
$GPGGA,143810.00,2255.672364,S,04527.643208,W,1,15,0.8,552.7,M,-4.3,M,,*72
$PGLOR,5,STA,143810.00,-0.002,0.000,298,1,8,3,P,F,L,0,C,3,S,0002,107,5,R,33F4,TPEF,19,56,LC,,*75
$PGLOR,1,UNC,143810.00,0.020,8.0,3.0,0.22,2.49,6.9,4.0,85.4*16
$PGLOR,2,SAT,3,1,R05,029,1F,G10,031,1F,G18,025,1F,R20,024,1F,R19,028,1F,R06,021,17*41
$PGLOR,2,SAT,3,2,G21,027,1F,G26,023,3F,G16,022,3F,G32,030,1F,G27,024,3F,G14,024,1F*37
$PGLOR,2,SAT,3,3,G29,026,1B,R04,020,33,G15,026,33,R21,027,30,G20,020,30,R18,018,30*58
$PGLOR,2,SIO,TxERR,0,RxERR,0,TxCNT,337,RxCNT,4007,MLFRMPKT,0,DTMS,1000,DTIN,49,60,DTOUT,847,937,HATMD,54*2C
$PGLOR,3,PWR,mA,26.5,RFTm,1000,OscTm,1000,MeasTm,1000,UTC,143810.00*39
$GPGSV,3,1,12,10,69,250,32,18,56,159,25,21,43,131,27,26,34,304,30*75
$GPGSV,3,2,12,16,34,266,27,32,30,003,31,27,29,217,24,14,25,004,27*70
$GPGSV,3,3,12,29,21,045,31,15,17,132,29,20,03,132,20,08,00,219,*79
$GLGSV,2,1,07,69,71,168,29,84,48,176,24,83,45,086,30,70,45,323,24*6F
$GLGSV,2,2,07,68,19,153,24,85,09,213,27,82,02,051,19*50
$GPGSA,A,3,10,14,15,16,18,21,26,27,29,32,,,2.2,0.9,2.0*3F
$GNGSA,A,3,10,14,15,16,18,21,26,27,29,32,,,2.2,0.9,2.0*21
$GNGSA,A,3,68,69,70,83,84,,,,,,,,2.2,0.9,2.0*26
$QZGSA,A,3,,,,,,,,,,,,,2.2,0.9,2.0*25
$IMGSA,A,3,,,,,,,,,,,,,2.2,0.9,2.0*2A
$PGLOR,1,FIX,1.0,1.0*20
$GPRMC,143810.00,A,2255.672364,S,04527.643208,W,008.0,176.5,020516,,,A*5E
$PGLOR,SPL,20160502113816.7,POS,20160502143810.000,-22.927873,-45.460720,8,8,0,548,3,1.100000
$GPGGA,143811.00,2255.673940,S,04527.642955,W,1,15,1.2,552.6,M,-4.3,M,,*76
$PGLOR,5,STA,143811.00,-0.002,0.000,298,1,12,3,P,F,L,0,C,3,S,0002,110,5,R,33F4,TPEF,19,57,LC,,*48
$PGLOR,1,UNC,143811.00,0.020,12.0,3.1,0.23,3.48,10.3,6.2,84.1*15
$PGLOR,2,SAT,3,1,R05,028,1F,G10,029,1F,G18,030,1F,R20,028,1B,R19,026,1B,R06,023,10*4A
$PGLOR,2,SAT,3,2,G21,024,1F,G26,020,3B,G16,023,3F,G32,032,1F,G27,023,3F,G14,030,1F*32
$PGLOR,2,SAT,3,3,G29,023,1F,R04,020,33,G15,025,33,R21,026,33,G20,007,30,R18,013,30*56
$PGLOR,2,SIO,TxERR,0,RxERR,0,TxCNT,339,RxCNT,4053,MLFRMPKT,0,DTMS,1001,DTIN,49,56,DTOUT,726,945,HATMD,55*2B
$PGLOR,3,PWR,mA,26.5,RFTm,1000,OscTm,1000,MeasTm,1000,UTC,143811.00*38
$GPGSV,3,1,12,10,69,250,32,18,56,159,30,21,43,131,27,26,34,304,29*79
$GPGSV,3,2,12,16,34,266,26,32,30,003,32,27,29,217,24,14,25,004,30*74
$GPGSV,3,3,12,29,21,045,30,15,17,132,29,20,03,132,18,08,00,219,*73
$GLGSV,2,1,07,69,71,168,29,84,48,176,28,83,45,086,30,70,45,323,24*63
$GLGSV,2,2,07,68,19,153,23,85,09,213,27,82,02,051,18*56
$GPGSA,A,3,10,14,15,16,18,21,26,27,29,32,,,2.2,1.0,2.0*37
$GNGSA,A,3,10,14,15,16,18,21,26,27,29,32,,,2.2,1.0,2.0*29
$GNGSA,A,3,68,69,83,84,85,,,,,,,,2.2,1.0,2.0*24
$QZGSA,A,3,,,,,,,,,,,,,2.2,1.0,2.0*2D
$IMGSA,A,3,,,,,,,,,,,,,2.2,1.0,2.0*22
$PGLOR,1,FIX,1.0,1.0*20
$GPRMC,143811.00,A,2255.673940,S,04527.642955,W,006.2,174.2,020516,,,A*59
$PGLOR,SPL,20160502113817.7,POS,20160502143811.000,-22.927899,-45.460716,12,12,0,548,3,1.100000
$GPGGA,143812.00,2255.675211,S,04527.642724,W,1,15,1.2,552.6,M,-4.3,M,,*74
$PGLOR,5,STA,143812.00,-0.002,0.000,298,1,12,3,P,F,L,0,C,3,S,0002,112,5,R,33F4,TPEF,19,58,LC,,*46
$PGLOR,1,UNC,143812.00,0.021,12.0,3.2,0.21,4.78,10.3,6.2,82.9*1C
$PGLOR,2,SAT,3,1,R05,028,1F,G10,029,1F,G18,028,1F,R20,028,1F,R19,026,1F,R06,024,10*44
$PGLOR,2,SAT,3,2,G21,024,1B,G26,020,3F,G16,024,3F,G32,034,1F,G27,022,3B,G14,034,1F*32
$PGLOR,2,SAT,3,3,G29,023,1F,R04,019,33,G15,021,33,R21,025,33,G20,018,30,R18,007,30*50
$PGLOR,2,SIO,TxERR,0,RxERR,0,TxCNT,398,RxCNT,4052,MLFRMPKT,0,DTMS,999,DTIN,45,54,DTOUT,850,943,HATMD,54*1F
$PGLOR,3,PWR,mA,26.5,RFTm,1000,OscTm,1000,MeasTm,1000,UTC,143812.00*3B
$GPGSV,3,1,12,10,69,250,31,18,56,159,30,21,43,131,26,26,34,304,28*7A
$GPGSV,3,2,12,16,34,266,26,32,30,003,34,27,29,217,24,14,25,004,34*76
$GPGSV,3,3,12,29,21,045,29,15,17,132,28,20,03,132,18,08,00,219,*7A
$GLGSV,2,1,07,69,71,168,28,84,48,176,28,83,45,086,30,70,45,323,24*62
$GLGSV,2,2,07,68,19,153,23,85,09,213,27,82,02,051,17*59
$GPGSA,A,3,10,14,15,16,18,21,26,27,29,32,,,3.0,1.2,2.7*31
$GNGSA,A,3,10,14,15,16,18,21,26,27,29,32,,,3.0,1.2,2.7*2F
$GNGSA,A,3,68,69,83,84,85,,,,,,,,3.0,1.2,2.7*22
$QZGSA,A,3,,,,,,,,,,,,,3.0,1.2,2.7*2B
$IMGSA,A,3,,,,,,,,,,,,,3.0,1.2,2.7*24
$PGLOR,1,FIX,1.0,1.0*20
$GPRMC,143812.00,A,2255.675211,S,04527.642724,W,004.1,174.6,020516,,,A*5E
$PGLOR,SPL,20160502113818.7,POS,20160502143812.000,-22.927920,-45.460712,12,12,0,548,3,1.100000
$GPGGA,143813.00,2255.676480,S,04527.642440,W,1,15,1.2,552.6,M,-4.3,M,,*79
$PGLOR,5,STA,143813.00,-0.002,0.000,299,1,12,1,P,F,L,0,C,3,S,0002,115,5,R,33F4,TPEF,19,59,LC,,*42
$PGLOR,1,UNC,143813.00,0.020,12.0,3.2,0.16,4.92,10.2,6.2,75.3*1F
$PGLOR,2,SAT,3,1,R05,029,1F,G10,031,1F,G18,029,1B,R20,028,1F,R06,019,10,R19,030,1F*40
$PGLOR,2,SAT,3,2,G21,024,1B,G26,019,3F,G16,028,3F,G32,037,1F,G27,021,37,G14,033,1F*46
$PGLOR,2,SAT,3,3,G29,020,1B,R04,021,33,G15,020,33,R21,028,3F,G20,007,30,R18,007,30*2B
$PGLOR,2,SIO,TxERR,0,RxERR,0,TxCNT,357,RxCNT,4060,MLFRMPKT,0,DTMS,1001,DTIN,47,55,DTOUT,704,946,HATMD,55*2D
$PGLOR,3,PWR,mA,26.5,RFTm,1000,OscTm,1000,MeasTm,1000,UTC,143813.00*3A
$GPGSV,3,1,12,10,69,250,31,18,56,159,29,21,43,131,26,26,34,304,27*7D
$GPGSV,3,2,12,16,34,266,28,32,30,003,37,27,29,217,24,14,25,004,34*7B
$GPGSV,3,3,12,29,21,045,28,15,17,132,27,20,03,132,17,08,00,219,*7B
$GLGSV,2,1,07,69,71,168,29,84,48,176,28,70,46,323,24,83,45,086,30*60
$GLGSV,2,2,07,68,19,153,23,85,09,212,28,82,02,051,16*56
$GPGSA,A,3,10,14,15,16,18,21,26,27,29,32,,,1.8,1.0,1.5*38
$GNGSA,A,3,10,14,15,16,18,21,26,27,29,32,,,1.8,1.0,1.5*26
$GNGSA,A,3,68,69,83,84,85,,,,,,,,1.8,1.0,1.5*2B
$QZGSA,A,3,,,,,,,,,,,,,1.8,1.0,1.5*22
$IMGSA,A,3,,,,,,,,,,,,,1.8,1.0,1.5*2D
$PGLOR,1,FIX,1.0,1.0*20
$GPRMC,143813.00,A,2255.676480,S,04527.642440,W,002.8,161.0,020516,,,A*5E
$PGLOR,SPL,20160502113819.7,POS,20160502143813.000,-22.927941,-45.460707,12,12,0,548,3,1.100000
$GPGGA,143814.00,2255.676480,S,04527.642440,W,1,15,1.2,552.6,M,-4.3,M,,*7E
$PGLOR,5,STA,143814.00,-0.002,0.000,298,1,12,0,P,F,L,0,C,3,S,0002,115,5,R,33F4,TPEF,19,60,LC,,*4F
$PGLOR,1,UNC,143814.00,0.020,12.0,3.2,0.14,4.40,10.2,6.4,65.0*11
$PGLOR,2,SAT,3,1,R05,029,1F,G10,031,1F,G18,032,1F,R20,026,1F,R06,029,10,R19,029,1F*4B
$PGLOR,2,SAT,3,2,G21,024,1F,G26,019,3B,G16,032,3F,G32,035,1F,G27,024,3B,G14,031,1F*3D
$PGLOR,2,SAT,3,3,G29,019,1B,R04,021,33,G15,019,33,R21,028,33,G20,013,30,R18,007,30*5B
$PGLOR,2,SIO,TxERR,0,RxERR,0,TxCNT,479,RxCNT,4004,MLFRMPKT,0,DTMS,1000,DTIN,47,55,DTOUT,849,942,HATMD,55*27
$PGLOR,3,PWR,mA,26.5,RFTm,1000,OscTm,1000,MeasTm,1000,UTC,143814.00*3D
$GPGSV,3,1,12,10,69,250,31,18,56,159,32,21,43,131,26,26,34,304,26*76
$GPGSV,3,2,12,16,34,266,32,32,30,003,36,27,29,217,24,14,25,004,34*71
$GPGSV,3,3,12,29,21,045,27,15,17,132,27,20,03,132,17,08,00,219,*74
$GLGSV,2,1,07,69,71,168,29,84,48,176,28,70,46,323,29,83,45,086,30*6D
$GLGSV,2,2,07,68,19,153,23,85,09,212,28,82,02,051,15*55
$GPGSA,A,3,10,14,15,16,18,21,26,27,29,32,,,3.0,1.2,2.8*3E
$GNGSA,A,3,10,14,15,16,18,21,26,27,29,32,,,3.0,1.2,2.8*20
$GNGSA,A,3,68,69,83,84,85,,,,,,,,3.0,1.2,2.8*2D
$QZGSA,A,3,,,,,,,,,,,,,3.0,1.2,2.8*24
$IMGSA,A,3,,,,,,,,,,,,,3.0,1.2,2.8*2B
$PGLOR,1,FIX,1.0,1.0*20
$GPRMC,143814.00,A,2255.676480,S,04527.642440,W,000.0,161.0,020516,,,A*53
$PGLOR,SPL,20160502113820.7,POS,20160502143814.000,-22.927941,-45.460707,12,12,0,548,3,1.100000
$GPGGA,143815.00,2255.677885,S,04527.641740,W,1,14,0.8,552.5,M,-4.3,M,,*7E
$PGLOR,5,STA,143815.00,-0.002,0.000,298,1,8,3,P,F,L,0,C,3,S,0002,117,5,R,33F4,TPEF,19,61,LC,,*75
$PGLOR,1,UNC,143815.00,0.019,8.0,3.2,0.24,4.32,6.8,4.2,58.7*17
$PGLOR,2,SAT,3,1,R05,031,1F,G10,032,1F,G18,032,1F,R20,026,1F,R06,023,10,R19,027,1F*45
$PGLOR,2,SAT,3,2,G21,024,1B,G26,022,3F,G16,033,3F,G32,032,1F,G27,024,3F,G14,029,17*4F
$PGLOR,2,SAT,3,3,G29,019,1B,R04,026,3F,G15,016,30,R21,028,33,G20,007,30,R18,007,30*20
$PGLOR,2,SIO,TxERR,0,RxERR,0,TxCNT,340,RxCNT,4124,MLFRMPKT,0,DTMS,1000,DTIN,46,57,DTOUT,836,943,HATMD,55*23
$PGLOR,3,PWR,mA,26.5,RFTm,1001,OscTm,1000,MeasTm,1000,UTC,143815.00*3D
$PGLOR,2,PFM,HAL,P,0,0,100,0,RF,-,-132,32.7,0,RTC,,P,STO,P,LTO,P,SW,P,,,,OSC,P,P,P*4A
$GPGSV,3,1,12,10,69,250,32,18,56,159,32,21,43,131,26,26,34,304,26*75
$GPGSV,3,2,12,16,34,266,33,32,30,003,36,27,29,217,24,14,25,004,33*77
$GPGSV,3,3,12,29,21,045,27,15,17,132,25,20,03,132,16,08,00,219,*77
$GLGSV,2,1,07,69,71,168,31,84,48,176,28,70,46,323,28,83,45,086,30*65
$GLGSV,2,2,07,68,19,153,26,85,09,212,28,82,02,051,14*51
$GPGSA,A,3,10,14,16,18,21,26,27,29,32,,,,1.8,0.9,1.6*37
$GNGSA,A,3,10,14,16,18,21,26,27,29,32,,,,1.8,0.9,1.6*29
$GNGSA,A,3,68,69,83,84,85,,,,,,,,1.8,0.9,1.6*20
$QZGSA,A,3,,,,,,,,,,,,,1.8,0.9,1.6*29
$IMGSA,A,3,,,,,,,,,,,,,1.8,0.9,1.6*26
$PGLOR,1,FIX,1.0,1.0*20
$GPRMC,143815.00,A,2255.677885,S,04527.641740,W,003.9,144.7,020516,,,A*50
$PGLOR,SPL,20160502113821.7,POS,20160502143815.000,-22.927965,-45.460696,8,8,0,548,3,1.100000
$GPGGA,143816.00,2255.678925,S,04527.641216,W,1,15,0.8,552.4,M,-4.3,M,,*7F
$PGLOR,5,STA,143816.00,-0.002,0.000,299,1,8,3,P,F,L,0,C,3,S,0002,120,5,R,33F4,TPEF,19,62,LC,,*70
$PGLOR,1,UNC,143816.00,0.019,8.0,3.2,0.19,3.22,6.7,4.3,53.2*1C
$PGLOR,2,SAT,3,1,R05,029,1F,G10,032,1F,G18,029,1F,R20,024,17,R06,027,1F,R19,025,1F*45
$PGLOR,2,SAT,3,2,G21,022,1F,G26,025,37,G16,031,3F,G32,031,1F,G27,025,3B,G14,029,1F*4E
$PGLOR,2,SAT,3,3,G29,017,1B,R04,029,3F,G15,021,30,R21,025,33,G20,013,30,R18,019,30*22
$PGLOR,2,SIO,TxERR,0,RxERR,0,TxCNT,401,RxCNT,4029,MLFRMPKT,0,DTMS,999,DTIN,48,58,DTOUT,848,938,HATMD,54*10
$PGLOR,3,PWR,mA,26.5,RFTm,999,OscTm,1000,MeasTm,1000,UTC,143816.00*07
$GPGSV,3,1,12,10,69,250,32,18,56,159,32,21,43,131,25,26,34,304,26*76
$GPGSV,3,2,12,16,34,266,33,32,30,003,36,27,29,217,25,14,25,004,33*76
$GPGSV,3,3,12,29,21,045,26,15,17,132,25,20,03,132,16,08,00,219,*76
$GLGSV,2,1,07,69,71,168,31,84,48,176,27,70,46,323,28,83,45,086,29*62
$GLGSV,2,2,07,68,19,153,29,85,09,212,28,82,02,051,19*53
$GPGSA,A,3,10,14,16,18,21,26,27,29,32,,,,1.9,0.9,1.6*36
$GNGSA,A,3,10,14,16,18,21,26,27,29,32,,,,1.9,0.9,1.6*28
$GNGSA,A,3,68,69,70,83,84,85,,,,,,,1.9,0.9,1.6*26
$QZGSA,A,3,,,,,,,,,,,,,1.9,0.9,1.6*28
$IMGSA,A,3,,,,,,,,,,,,,1.9,0.9,1.6*27
$PGLOR,1,FIX,1.0,1.0*20
$GPRMC,143816.00,A,2255.678925,S,04527.641216,W,004.6,143.2,020516,,,A*5B
$PGLOR,SPL,20160502113822.7,POS,20160502143816.000,-22.927982,-45.460687,8,8,0,548,3,1.100000
$GPGGA,143817.00,2255.679905,S,04527.640084,W,1,15,0.8,552.4,M,-4.3,M,,*75
$PGLOR,5,STA,143817.00,-0.002,0.000,298,1,8,1,P,F,L,0,C,3,S,0002,122,5,R,33F4,TPEF,19,63,LC,,*71
$PGLOR,1,UNC,143817.00,0.020,8.0,3.2,0.21,2.61,6.8,4.1,43.7*13
$PGLOR,2,SAT,3,1,R05,026,1B,G10,036,1F,G18,029,1F,R20,024,1F,R06,029,1F,R19,027,1F*37
$PGLOR,2,SAT,3,2,G21,028,17,G26,022,33,G16,028,3B,G32,031,1F,G27,025,3B,G14,027,1F*34
$PGLOR,2,SAT,3,3,G29,017,1F,R04,027,3B,G15,026,30,R21,023,33,G20,017,30,R18,007,30*26
$PGLOR,2,SIO,TxERR,0,RxERR,0,TxCNT,349,RxCNT,3999,MLFRMPKT,0,DTMS,1001,DTIN,65,75,DTOUT,832,923,HATMD,55*21
$PGLOR,3,PWR,mA,26.5,RFTm,1000,OscTm,1000,MeasTm,1000,UTC,143817.00*3E
$GPGSV,3,1,12,10,69,250,36,18,56,159,32,21,43,131,28,26,34,304,25*7C
$GPGSV,3,2,12,16,34,266,32,32,30,003,35,27,29,217,25,14,25,004,32*75
$GPGSV,3,3,12,29,21,045,25,15,17,132,26,20,03,132,17,08,00,219,*77
$GLGSV,2,1,07,69,71,168,30,84,48,176,27,70,46,323,29,83,45,086,29*62
$GLGSV,2,2,07,68,19,153,29,85,09,212,27,82,02,051,18*5D
$GPGSA,A,3,10,14,16,18,21,26,27,29,32,,,,4.4,1.7,4.1*33
$GNGSA,A,3,10,14,16,18,21,26,27,29,32,,,,4.4,1.7,4.1*2D
$GNGSA,A,3,68,69,70,83,84,85,,,,,,,4.4,1.7,4.1*23
$QZGSA,A,3,,,,,,,,,,,,,4.4,1.7,4.1*2D
$IMGSA,A,3,,,,,,,,,,,,,4.4,1.7,4.1*22
$PGLOR,1,FIX,1.0,1.0*20
$GPRMC,143817.00,A,2255.679905,S,04527.640084,W,005.5,126.0,020516,,,A*52
$PGLOR,SPL,20160502113823.7,POS,20160502143817.000,-22.927998,-45.460668,8,8,0,548,3,1.100000
$GPGGA,143818.00,2255.681132,S,04527.638477,W,1,15,0.8,552.3,M,-4.3,M,,*71
$PGLOR,5,STA,143818.00,-0.002,0.000,299,1,8,3,P,F,L,0,C,3,S,0002,126,5,R,33F4,TPEF,19,64,LC,,*7E
$PGLOR,1,UNC,143818.00,0.019,8.0,3.2,0.18,2.43,6.8,4.3,37.5*1F
$PGLOR,2,SAT,3,1,R05,024,1F,G10,034,1F,G18,027,1F,R20,024,1B,R06,034,1F,R19,026,1F*34
$PGLOR,2,SAT,3,2,G21,031,1F,G26,028,3F,G16,028,3B,G32,030,1F,G27,028,3B,G14,027,1F*3E
$PGLOR,2,SAT,3,3,G29,020,10,R04,031,37,G15,027,33,R21,021,33,G20,020,30,R18,018,30*2C
$PGLOR,2,SIO,TxERR,0,RxERR,0,TxCNT,338,RxCNT,4079,MLFRMPKT,0,DTMS,1000,DTIN,43,54,DTOUT,845,946,HATMD,55*22
$PGLOR,3,PWR,mA,26.5,RFTm,1001,OscTm,1000,MeasTm,1000,UTC,143818.00*30
$GPGSV,3,1,12,10,69,250,36,18,56,159,31,21,43,131,31,26,34,304,28*7A
$GPGSV,3,2,12,16,34,266,32,32,30,003,35,27,29,217,28,14,25,004,32*78
$GPGSV,3,3,12,29,21,045,24,15,17,132,27,20,03,132,20,08,00,219,*73
$GLGSV,2,1,07,69,71,168,30,84,48,176,27,70,46,323,34,83,45,086,29*6E
$GLGSV,2,2,07,68,19,153,31,85,09,212,27,82,02,051,18*54
$GPGSA,A,3,10,14,15,16,18,21,26,27,32,,,,2.1,1.1,1.7*3A
$GNGSA,A,3,10,14,15,16,18,21,26,27,32,,,,2.1,1.1,1.7*24
$GNGSA,A,3,68,69,70,83,84,85,,,,,,,2.1,1.1,1.7*25
$QZGSA,A,3,,,,,,,,,,,,,2.1,1.1,1.7*2B
$IMGSA,A,3,,,,,,,,,,,,,2.1,1.1,1.7*24
$PGLOR,1,FIX,1.0,1.0*20
$GPRMC,143818.00,A,2255.681132,S,04527.638477,W,005.8,122.7,020516,,,A*5F
$PGLOR,SPL,20160502113824.7,POS,20160502143818.000,-22.928019,-45.460641,8,8,0,548,3,1.100000
$GPGGA,143819.00,2255.682346,S,04527.636646,W,1,15,0.8,552.2,M,-4.3,M,,*7D
$PGLOR,5,STA,143819.00,-0.002,0.000,299,1,8,3,P,F,L,0,C,3,S,0002,129,5,R,33F4,TPEF,19,65,LC,,*71
$PGLOR,1,UNC,143819.00,0.017,8.0,3.2,0.22,2.84,6.7,4.4,32.1*1B
$PGLOR,2,SAT,4,1,R05,024,1F,G10,032,1F,G18,028,1F,R20,022,1B,R06,033,1F,R19,025,1F*38
$PGLOR,2,SAT,4,2,G21,031,1F,G16,025,3F,G26,033,3F,G32,026,17,G27,030,3F,G14,023,13*30
$PGLOR,2,SAT,4,3,G29,017,10,R04,031,3F,G15,031,3F,R21,019,33,G20,012,30,R18,010,30*2E
$PGLOR,2,SAT,4,4,G08,007,30*65
$PGLOR,2,SIO,TxERR,0,RxERR,0,TxCNT,518,RxCNT,4137,MLFRMPKT,0,DTMS,1001,DTIN,55,64,DTOUT,839,933,HATMD,56*22
$PGLOR,3,PWR,mA,26.6,RFTm,1001,OscTm,1000,MeasTm,1000,UTC,143819.00*32
$GPGSV,3,1,12,10,69,250,35,18,56,159,31,21,43,131,31,16,34,266,31*77
$GPGSV,3,2,12,26,34,304,33,32,30,003,34,27,29,217,30,14,25,004,31*74
$GPGSV,3,3,12,29,21,045,24,15,17,132,31,20,03,132,20,08,00,219,07*73
$GLGSV,2,1,07,69,71,168,29,84,48,176,26,70,46,323,34,83,45,086,28*66
$GLGSV,2,2,07,68,19,153,31,85,09,212,26,82,02,051,17*5A
$GPGSA,A,3,10,14,15,16,18,21,26,27,32,,,,1.7,0.9,1.4*35
$GNGSA,A,3,10,14,15,16,18,21,26,27,32,,,,1.7,0.9,1.4*2B
$GNGSA,A,3,68,69,70,83,84,85,,,,,,,1.7,0.9,1.4*2A
$QZGSA,A,3,,,,,,,,,,,,,1.7,0.9,1.4*24
$IMGSA,A,3,,,,,,,,,,,,,1.7,0.9,1.4*2B
$PGLOR,1,FIX,1.0,1.0*20
$GPRMC,143819.00,A,2255.682346,S,04527.636646,W,005.9,121.7,020516,,,A*50
$PGLOR,SPL,20160502113825.7,POS,20160502143819.000,-22.928039,-45.460611,8,8,0,548,3,1.100000
$GPGGA,143820.00,2255.682860,S,04527.634938,W,1,15,0.8,552.1,M,-4.3,M,,*7F
$PGLOR,5,STA,143820.00,-0.002,0.000,300,1,8,1,P,F,L,0,C,3,S,0002,132,5,R,33F4,TPEF,19,66,LC,,*71
$PGLOR,1,UNC,143820.00,0.017,8.0,3.2,0.20,2.70,6.7,4.4,20.7*1D
$PGLOR,2,SAT,4,1,R05,026,1F,G10,032,1F,G18,025,1F,R20,025,1F,R06,031,1B,R19,026,1F*31
$PGLOR,2,SAT,4,2,G21,029,1F,G16,023,3F,G26,031,3F,G32,023,13,G27,027,3F,G14,020,13*39
$PGLOR,2,SAT,4,3,G29,021,10,R04,029,3F,G15,027,3F,R21,018,33,G20,017,30,R18,019,30*28
$PGLOR,2,SAT,4,4,G08,013,30*60
$PGLOR,2,SIO,TxERR,0,RxERR,0,TxCNT,377,RxCNT,4181,MLFRMPKT,0,DTMS,1000,DTIN,52,61,DTOUT,632,939,HATMD,56*2C
$PGLOR,3,PWR,mA,26.6,RFTm,999,OscTm,1000,MeasTm,1000,UTC,143820.00*01
$GPGSV,3,1,12,10,69,249,35,18,56,159,30,21,43,131,31,16,34,266,30*7F
$GPGSV,3,2,12,26,34,304,33,32,30,003,33,27,29,217,30,14,25,004,30*72
$GPGSV,3,3,12,29,21,045,23,15,17,132,30,20,03,132,19,08,00,219,13*7A
$GLGSV,2,1,07,69,71,168,29,84,48,176,26,70,46,323,34,83,45,086,28*66
$GLGSV,2,2,07,68,19,153,31,85,09,212,25,82,02,051,19*57
$GPGSA,A,3,10,14,15,16,18,21,26,27,32,,,,1.9,1.1,1.5*33
$GNGSA,A,3,10,14,15,16,18,21,26,27,32,,,,1.9,1.1,1.5*2D
$GNGSA,A,3,68,69,70,83,84,85,,,,,,,1.9,1.1,1.5*2C
$QZGSA,A,3,,,,,,,,,,,,,1.9,1.1,1.5*22
$IMGSA,A,3,,,,,,,,,,,,,1.9,1.1,1.5*2D
$PGLOR,1,FIX,1.0,1.0*20
$GPRMC,143820.00,A,2255.682860,S,04527.634938,W,005.5,105.6,020516,,,A*5A
$PGLOR,SPL,20160502113826.7,POS,20160502143820.000,-22.928048,-45.460582,8,8,0,548,3,1.100000
$GPGGA,143821.00,2255.683199,S,04527.633482,W,1,15,0.8,552.1,M,-4.3,M,,*7B
$PGLOR,5,STA,143821.00,-0.002,0.000,300,1,8,3,P,F,L,0,C,3,S,0002,135,5,R,33F4,TPEF,19,67,LC,,*74
$PGLOR,1,UNC,143821.00,0.017,8.0,3.2,0.20,3.00,6.6,4.4,10.7*18
$PGLOR,2,SAT,4,1,R05,024,1F,G10,035,1F,G18,024,1F,R20,024,1B,R06,031,1F,R19,028,1F*3A
$PGLOR,2,SAT,4,2,G21,031,1F,G16,023,3F,G26,030,3F,G32,020,17,G27,027,3B,G14,019,1B*49
$PGLOR,2,SAT,4,3,G29,023,10,R04,027,37,G15,029,3F,R21,018,33,G20,007,30,R18,007,30*55
$PGLOR,2,SAT,4,4,G08,007,30*65
$PGLOR,2,SIO,TxERR,0,RxERR,0,TxCNT,427,RxCNT,4090,MLFRMPKT,0,DTMS,1000,DTIN,47,56,DTOUT,848,941,HATMD,56*23
$PGLOR,3,PWR,mA,26.6,RFTm,1000,OscTm,1000,MeasTm,1000,UTC,143821.00*38
$GPGSV,3,1,12,10,69,249,35,18,56,159,30,21,43,131,31,16,34,266,30*7F
$GPGSV,3,2,12,26,34,304,33,32,30,003,31,27,29,217,30,14,25,004,29*78
$GPGSV,3,3,12,29,21,045,23,15,17,132,30,20,03,132,18,08,00,219,12*7A
$GLGSV,2,1,07,69,71,168,28,84,48,176,26,70,46,323,33,83,45,086,28*60
$GLGSV,2,2,07,68,19,153,31,85,09,212,24,82,02,051,18*57
$GPGSA,A,3,10,14,15,16,18,21,26,27,32,,,,1.8,1.0,1.5*33
$GNGSA,A,3,10,14,15,16,18,21,26,27,32,,,,1.8,1.0,1.5*2D
$GNGSA,A,3,68,69,70,83,84,85,,,,,,,1.8,1.0,1.5*2C
$QZGSA,A,3,,,,,,,,,,,,,1.8,1.0,1.5*22
$IMGSA,A,3,,,,,,,,,,,,,1.8,1.0,1.5*2D
$PGLOR,1,FIX,1.0,1.0*20
$GPRMC,143821.00,A,2255.683199,S,04527.633482,W,005.4,102.0,020516,,,A*5E
$PGLOR,SPL,20160502113827.7,POS,20160502143821.000,-22.928053,-45.460558,8,8,0,548,3,1.100000
$GPGGA,143822.00,2255.683175,S,04527.631732,W,1,15,0.8,552.0,M,-4.3,M,,*71
$PGLOR,5,STA,143822.00,-0.002,0.000,299,1,8,1,P,F,L,0,C,3,S,0002,138,5,R,33F4,TPEF,19,68,LC,,*76
$PGLOR,1,UNC,143822.00,0.017,8.0,3.2,0.19,2.70,6.7,4.3,-5.2*0D
$PGLOR,2,SAT,4,1,R05,024,1B,G10,037,1F,G18,022,1B,R20,024,1F,R06,031,1F,R19,028,1F*3A
$PGLOR,2,SAT,4,2,G21,034,1F,G16,022,3F,G26,031,3F,G32,019,17,G27,026,3B,G14,016,1B*48
$PGLOR,2,SAT,4,3,G29,029,10,R04,027,37,G15,027,3F,R21,020,33,G20,016,30,R18,007,30*5A
$PGLOR,2,SAT,4,4,G08,013,30*60
$PGLOR,2,SIO,TxERR,0,RxERR,0,TxCNT,354,RxCNT,4124,MLFRMPKT,0,DTMS,1000,DTIN,44,53,DTOUT,727,947,HATMD,56*28
$PGLOR,3,PWR,mA,26.6,RFTm,1001,OscTm,1000,MeasTm,1000,UTC,143822.00*3A
$GPGSV,3,1,12,10,69,249,37,18,56,159,29,21,43,131,34,16,34,266,29*78
$GPGSV,3,2,12,26,34,304,33,32,30,003,30,27,29,217,29,14,25,004,28*70
$GPGSV,3,3,12,29,21,045,29,15,17,132,30,20,03,132,18,08,00,219,13*71
$GLGSV,2,1,07,69,71,168,28,84,48,176,26,70,46,323,33,83,45,086,28*60
$GLGSV,2,2,07,68,19,153,30,85,09,212,24,82,02,051,17*59
$GPGSA,A,3,10,14,15,16,18,21,26,27,32,,,,2.0,1.0,1.8*35
$GNGSA,A,3,10,14,15,16,18,21,26,27,32,,,,2.0,1.0,1.8*2B
$GNGSA,A,3,68,69,70,83,84,85,,,,,,,2.0,1.0,1.8*2A
$QZGSA,A,3,,,,,,,,,,,,,2.0,1.0,1.8*24
$IMGSA,A,3,,,,,,,,,,,,,2.0,1.0,1.8*2B
$PGLOR,1,FIX,1.0,1.0*20
$GPRMC,143822.00,A,2255.683175,S,04527.631732,W,005.9,087.2,020516,,,A*56
$PGLOR,SPL,20160502113828.7,POS,20160502143822.000,-22.928053,-45.460529,8,8,0,548,3,1.100000
$GPGGA,143823.00,2255.683101,S,04527.630087,W,1,15,0.8,551.9,M,-4.3,M,,*71
$PGLOR,5,STA,143823.00,-0.002,0.000,299,1,8,3,P,F,L,0,C,3,S,0002,141,5,R,33F4,TPEF,19,69,LC,,*7A
$PGLOR,1,UNC,143823.00,0.018,8.0,3.2,0.20,2.28,6.8,4.1,-15.0*3A
$PGLOR,2,SAT,4,1,R05,025,1F,G10,037,1F,G18,023,1B,R20,021,1B,R06,031,1F,R19,029,1F*3E
$PGLOR,2,SAT,4,2,G21,035,1F,G16,020,37,G26,032,3F,G32,020,1F,G27,025,3B,G14,016,10*33
$PGLOR,2,SAT,4,3,G29,028,13,R04,030,3B,G15,024,3B,R21,021,33,G20,007,30,R18,013,30*28
$PGLOR,2,SAT,4,4,G08,015,30*66
$PGLOR,2,SIO,TxERR,0,RxERR,0,TxCNT,398,RxCNT,4072,MLFRMPKT,0,DTMS,999,DTIN,47,56,DTOUT,848,941,HATMD,55*17
$PGLOR,3,PWR,mA,26.6,RFTm,999,OscTm,1000,MeasTm,1000,UTC,143823.00*02
$GPGSV,3,1,12,10,69,249,37,18,56,159,28,21,43,131,35,16,34,266,28*79
$GPGSV,3,2,12,26,34,304,32,32,30,003,29,27,29,217,29,14,25,004,26*77
$GPGSV,3,3,12,29,21,045,29,15,17,132,29,20,03,132,17,08,00,219,15*70
$GLGSV,2,1,07,69,71,168,28,84,48,176,25,70,46,323,33,83,45,086,29*62
$GLGSV,2,2,07,68,19,153,30,85,09,212,24,82,02,051,17*59
$GPGSA,A,3,10,15,16,18,21,26,27,29,32,,,,3.1,1.3,2.8*3B
$GNGSA,A,3,10,15,16,18,21,26,27,29,32,,,,3.1,1.3,2.8*25
$GNGSA,A,3,68,69,70,83,84,85,,,,,,,3.1,1.3,2.8*2A
$QZGSA,A,3,,,,,,,,,,,,,3.1,1.3,2.8*24
$IMGSA,A,3,,,,,,,,,,,,,3.1,1.3,2.8*2B
$PGLOR,1,FIX,1.0,1.0*20
$GPRMC,143823.00,A,2255.683101,S,04527.630087,W,007.1,085.2,020516,,,A*54
$PGLOR,SPL,20160502113829.7,POS,20160502143823.000,-22.928052,-45.460501,8,8,0,548,3,1.100000
$GPGGA,143824.00,2255.683009,S,04527.628444,W,1,15,0.8,551.8,M,-4.3,M,,*7C
$PGLOR,5,STA,143824.00,-0.002,0.000,300,1,8,3,P,F,L,0,C,3,S,0002,143,5,R,33F4,TPEF,19,70,LC,,*76
$PGLOR,1,UNC,143824.00,0.017,8.0,3.2,0.17,2.07,7.0,3.9,-16.5*3B
$PGLOR,2,SAT,4,1,R05,027,1B,G10,035,1F,G18,026,1F,R20,024,1B,R06,033,1F,R19,028,1F*3D
$PGLOR,2,SAT,4,2,G21,034,1F,G16,019,37,G26,030,3F,G32,020,1B,G27,023,33,G14,013,10*4C
$PGLOR,2,SAT,4,3,G29,030,1F,R04,027,3F,G15,023,3B,R21,020,33,G20,007,30,R18,007,30*55
$PGLOR,2,SAT,4,4,G08,011,30*62
$PGLOR,2,SIO,TxERR,0,RxERR,0,TxCNT,471,RxCNT,4132,MLFRMPKT,0,DTMS,1001,DTIN,47,58,DTOUT,723,942,HATMD,56*27
$PGLOR,3,PWR,mA,26.6,RFTm,1000,OscTm,1000,MeasTm,1000,UTC,143824.00*3D
$GPGSV,3,1,12,10,69,249,37,18,56,159,28,21,43,131,35,16,34,266,27*76
$GPGSV,3,2,12,26,34,304,32,32,30,003,28,27,29,217,28,14,25,004,25*74
$GPGSV,3,3,12,29,21,045,30,15,17,132,29,20,03,132,16,08,00,219,15*79
$GLGSV,2,1,07,69,71,168,28,84,48,176,25,70,46,323,33,83,45,086,29*62
$GLGSV,2,2,07,68,19,153,30,85,09,212,23,82,02,051,16*5F
$GPGSA,A,3,10,15,16,18,21,26,27,29,32,,,,2.1,1.0,1.8*3A
$GNGSA,A,3,10,15,16,18,21,26,27,29,32,,,,2.1,1.0,1.8*24
$GNGSA,A,3,68,69,70,83,84,85,,,,,,,2.1,1.0,1.8*2B
$QZGSA,A,3,,,,,,,,,,,,,2.1,1.0,1.8*25
$IMGSA,A,3,,,,,,,,,,,,,2.1,1.0,1.8*2A
$PGLOR,1,FIX,1.0,1.0*20
$GPRMC,143824.00,A,2255.683009,S,04527.628444,W,006.5,085.8,020516,,,A*57
$PGLOR,SPL,20160502113830.7,POS,20160502143824.000,-22.928050,-45.460474,8,8,0,548,3,1.100000
$GPGGA,143825.00,2255.682910,S,04527.626868,W,1,15,0.8,551.7,M,-4.3,M,,*7E
$PGLOR,5,STA,143825.00,-0.002,0.000,300,1,8,3,P,F,L,0,C,3,S,0002,146,5,R,33F4,TPEF,19,71,LC,,*73
$PGLOR,1,UNC,143825.00,0.018,8.0,3.2,0.17,1.99,7.1,3.7,-14.6*3F
$PGLOR,2,SAT,4,1,R05,026,1B,G10,036,1F,G18,024,1F,R20,028,1F,R06,032,1F,R19,027,1B*3F
$PGLOR,2,SAT,4,2,G21,031,1F,G16,022,33,G26,027,3F,G32,027,1F,G27,024,33,G14,021,10*46
$PGLOR,2,SAT,4,3,G29,029,1F,R04,025,3F,G15,022,3F,R21,020,33,G20,007,30,R18,012,30*5E
$PGLOR,2,SAT,4,4,G08,007,30*65
$PGLOR,2,SIO,TxERR,0,RxERR,0,TxCNT,387,RxCNT,4154,MLFRMPKT,0,DTMS,999,DTIN,47,56,DTOUT,847,941,HATMD,55*13
$PGLOR,3,PWR,mA,26.6,RFTm,1000,OscTm,1000,MeasTm,1000,UTC,143825.00*3C
$GPGSV,3,1,12,10,69,249,37,18,56,159,28,21,43,131,34,16,34,266,27*77
$GPGSV,3,2,12,26,34,304,32,32,30,003,28,27,29,217,28,14,25,004,25*74
$GPGSV,3,3,12,29,21,045,30,15,17,132,28,20,03,132,15,08,00,219,14*7A
$GLGSV,2,1,07,69,71,168,27,84,48,176,28,70,46,323,33,83,45,086,29*60
$GLGSV,2,2,07,68,19,153,30,85,09,212,23,82,01,051,15*5F
$GPGSA,A,3,10,15,16,18,21,26,27,29,32,,,,2.3,1.2,1.9*3B
$GNGSA,A,3,10,15,16,18,21,26,27,29,32,,,,2.3,1.2,1.9*25
$GNGSA,A,3,68,69,70,83,84,85,,,,,,,2.3,1.2,1.9*2A
$QZGSA,A,3,,,,,,,,,,,,,2.3,1.2,1.9*24
$IMGSA,A,3,,,,,,,,,,,,,2.3,1.2,1.9*2B
$PGLOR,1,FIX,1.0,1.0*20
$GPRMC,143825.00,A,2255.682910,S,04527.626868,W,006.4,087.4,020516,,,A*55
$PGLOR,SPL,20160502113831.7,POS,20160502143825.000,-22.928049,-45.460448,8,8,0,547,3,1.100000
$GPGGA,143826.00,2255.682857,S,04527.624740,W,1,15,0.8,551.7,M,-4.3,M,,*78
$PGLOR,5,STA,143826.00,-0.002,0.000,300,1,8,3,P,F,L,0,C,3,S,0002,150,5,R,33F4,TPEF,19,72,LC,,*74
$PGLOR,1,UNC,143826.00,0.019,8.0,3.2,0.21,2.29,7.1,3.7,-12.8*38
$PGLOR,2,SAT,4,1,R05,026,1F,G10,034,1F,G18,023,17,R20,027,1B,R06,031,1B,R19,026,1F*46
$PGLOR,2,SAT,4,2,G21,028,1F,G16,021,3F,G26,026,3F,G32,028,1F,G27,021,33,G14,007,10*37
$PGLOR,2,SAT,4,3,G29,024,1F,R04,023,3B,G15,021,3B,R21,020,33,G20,007,30,R18,007,30*52
$PGLOR,2,SAT,4,4,G08,020,30*60
$PGLOR,2,SIO,TxERR,0,RxERR,0,TxCNT,371,RxCNT,4078,MLFRMPKT,0,DTMS,1001,DTIN,41,52,DTOUT,851,945,HATMD,56*2E
$PGLOR,3,PWR,mA,26.6,RFTm,1000,OscTm,1000,MeasTm,1000,UTC,143826.00*3F
$GPGSV,3,1,12,10,69,249,37,18,56,159,27,21,43,131,34,16,34,266,26*79
$GPGSV,3,2,12,26,34,304,31,32,30,003,28,27,29,217,27,14,25,004,23*7E
$GPGSV,3,3,12,29,21,045,30,15,17,132,27,20,03,132,14,08,00,219,20*73
$GLGSV,2,1,07,69,71,168,27,84,48,176,28,70,46,323,33,83,45,086,28*61
$GLGSV,2,2,07,68,19,153,29,85,09,212,23,82,01,051,14*56
$GPGSA,A,3,10,15,16,18,21,26,27,29,32,,,,3.0,1.3,2.7*35
$GNGSA,A,3,10,15,16,18,21,26,27,29,32,,,,3.0,1.3,2.7*2B
$GNGSA,A,3,68,69,70,83,84,85,,,,,,,3.0,1.3,2.7*24
$QZGSA,A,3,,,,,,,,,,,,,3.0,1.3,2.7*2A
$IMGSA,A,3,,,,,,,,,,,,,3.0,1.3,2.7*25
$PGLOR,1,FIX,1.0,1.0*20
$GPRMC,143826.00,A,2255.682857,S,04527.624740,W,006.4,088.2,020516,,,A*5A
$PGLOR,SPL,20160502113832.7,POS,20160502143826.000,-22.928048,-45.460412,8,8,0,547,3,1.100000
$GPGGA,143827.00,2255.682867,S,04527.622630,W,1,15,0.8,551.6,M,-4.3,M,,*7B
$PGLOR,5,STA,143827.00,-0.002,0.000,300,1,8,3,P,F,L,0,C,3,S,0002,153,5,R,33F4,TPEF,19,73,LC,,*77
$PGLOR,1,UNC,143827.00,0.020,8.0,3.2,0.23,2.42,7.1,3.7,-9.9*07
$PGLOR,2,SAT,4,1,R05,023,1F,G10,034,1F,G18,022,1F,R20,026,1B,R06,029,1B,R19,026,1F*3B
$PGLOR,2,SAT,4,2,G21,026,1B,G16,023,3F,G26,027,3F,G32,027,1F,G27,023,37,G14,014,10*35
$PGLOR,2,SAT,4,3,G29,019,15,R04,029,3B,G15,021,3B,R21,022,33,G20,007,30,R18,017,30*26
$PGLOR,2,SAT,4,4,G08,016,30*65
$PGLOR,2,SIO,TxERR,0,RxERR,0,TxCNT,351,RxCNT,4112,MLFRMPKT,0,DTMS,1000,DTIN,45,54,DTOUT,521,946,HATMD,56*2B
$PGLOR,3,PWR,mA,26.6,RFTm,1000,OscTm,1000,MeasTm,1000,UTC,143827.00*3E
$GPGSV,3,1,12,10,69,249,36,18,56,159,27,21,43,131,33,16,34,266,26*7F
$GPGSV,3,2,12,26,34,304,31,32,30,003,28,27,29,217,27,14,25,004,22*7F
$GPGSV,3,3,12,29,21,045,29,15,17,132,27,20,03,132,13,08,00,219,19*76
